[{"s":"http://tour-pedia.org/resource/100031","lat":"52.4988","lng":"13.3076","label":"Xantener Eck"},{"s":"http://tour-pedia.org/resource/100036","lat":"52.5067","lng":"13.3015","label":"Bushaltestelle Kaiser-Friedrich-Straße"},{"s":"http://tour-pedia.org/resource/100058","lat":"52.505","lng":"13.2994","label":"friends&friends"},{"s":"http://tour-pedia.org/resource/100125","lat":"52.4918","lng":"13.3093","label":"Erntebrot"},{"s":"http://tour-pedia.org/resource/100286","lat":"52.5061","lng":"13.2992","label":"WindBURGER"},{"s":"http://tour-pedia.org/resource/100313","lat":"52.4984","lng":"13.318","label":"Bäckermann"},{"s":"http://tour-pedia.org/resource/100319","lat":"52.5016","lng":"13.3149","label":"Uhlig Rolf Dr. Arzt für Kinderheilkunde"},{"s":"http://tour-pedia.org/resource/100412","lat":"52.514","lng":"13.3008","label":"Kien-Du-Kiang-Thong"},{"s":"http://tour-pedia.org/resource/100571","lat":"52.4975","lng":"13.2827","label":"Trabener Steg"},{"s":"http://tour-pedia.org/resource/100584","lat":"52.4974","lng":"13.2898","label":"Sorge Martina Dr. med."},{"s":"http://tour-pedia.org/resource/100639","lat":"52.4877","lng":"13.3084","label":"BBQ @ Casis"},{"s":"http://tour-pedia.org/resource/100700","lat":"52.4995","lng":"13.3024","label":"The Artist Formerly Known as Hell"},{"s":"http://tour-pedia.org/resource/100768","lat":"52.5107","lng":"13.3054","label":"Hamy Sophie Kinh Moi"},{"s":"http://tour-pedia.org/resource/100780","lat":"52.5166","lng":"13.3067","label":"Chishkhan"},{"s":"http://tour-pedia.org/resource/100805","lat":"52.5019","lng":"13.3132","label":"Hanoi's Corner"},{"s":"http://tour-pedia.org/resource/100808","lat":"52.51","lng":"13.284","label":"Zahnarztpraxis Dres. Zimny"},{"s":"http://tour-pedia.org/resource/100874","lat":"52.5056","lng":"13.2997","label":"Insonne"},{"s":"http://tour-pedia.org/resource/100935","lat":"52.5067","lng":"13.2802","label":"Andy's Diner & Bar"},{"s":"http://tour-pedia.org/resource/100983","lat":"52.5042","lng":"13.3173","label":"Landbaeckerei Der Havellaender"},{"s":"http://tour-pedia.org/resource/101146","lat":"52.5006","lng":"13.3195","label":"Neeße Hans-Jürgen Dr."},{"s":"http://tour-pedia.org/resource/101231","lat":"52.5193","lng":"13.299","label":"Eiscafé am Schloss"},{"s":"http://tour-pedia.org/resource/101247","lat":"52.4962","lng":"13.3204","label":"Hotel Bellevue"},{"s":"http://tour-pedia.org/resource/101277","lat":"52.5014","lng":"13.2972","label":"Magnifique"},{"s":"http://tour-pedia.org/resource/101325","lat":"52.5172","lng":"13.3082","label":"Rathaus Charlottenburg"},{"s":"http://tour-pedia.org/resource/101340","lat":"52.5017","lng":"13.3174","label":"Paulo Scutarro"},{"s":"http://tour-pedia.org/resource/101435","lat":"52.506","lng":"13.3207","label":"Saigon-Green"},{"s":"http://tour-pedia.org/resource/101503","lat":"52.4998","lng":"13.314","label":"Pirate Pizza"},{"s":"http://tour-pedia.org/resource/101518","lat":"52.5141","lng":"13.2974","label":"Trattoria Toscana"},{"s":"http://tour-pedia.org/resource/101589","lat":"52.4986","lng":"13.2997","label":"Ristorante Pizzeria Piazza Brà"},{"s":"http://tour-pedia.org/resource/101775","lat":"52.506","lng":"13.3022","label":"Hotel Atrium Charlottenburg"},{"s":"http://tour-pedia.org/resource/101929","lat":"52.5208","lng":"13.3207","label":"Bushaltestelle Helmholtzstr."},{"s":"http://tour-pedia.org/resource/101974","lat":"52.5154","lng":"13.3068","label":"Saigon Imbiss"},{"s":"http://tour-pedia.org/resource/102122","lat":"52.5263","lng":"13.3058","label":"Zagros Grill"},{"s":"http://tour-pedia.org/resource/102346","lat":"52.5064","lng":"13.3021","label":"Hotel Adam"},{"s":"http://tour-pedia.org/resource/102347","lat":"52.5173","lng":"13.3077","label":"Ratskeller Charlottenburg"},{"s":"http://tour-pedia.org/resource/102353","lat":"52.4996","lng":"13.3213","label":"Mercure Hotel Chateau Berlin am Kurfürstendamm"},{"s":"http://tour-pedia.org/resource/102392","lat":"52.5102","lng":"13.298","label":"Niki's Cakes"},{"s":"http://tour-pedia.org/resource/102549","lat":"52.5083","lng":"13.3104","label":"Trinitatis-Kirche"},{"s":"http://tour-pedia.org/resource/102572","lat":"52.5174","lng":"13.3171","label":"Villy-Berlin Apartment"},{"s":"http://tour-pedia.org/resource/102631","lat":"52.4996","lng":"13.3131","label":"CurryUwe"},{"s":"http://tour-pedia.org/resource/102799","lat":"52.502","lng":"13.3044","label":"SharaZad Shisha & Cocktail Lounge"},{"s":"http://tour-pedia.org/resource/102902","lat":"52.499","lng":"13.303","label":"Prime Grill"},{"s":"http://tour-pedia.org/resource/102922","lat":"52.5239","lng":"13.3073","label":"Lasergame Berlin - Hauptquartier"},{"s":"http://tour-pedia.org/resource/102942","lat":"52.4981","lng":"13.2951","label":"Lorenzen Thomas Dr. Praxis"},{"s":"http://tour-pedia.org/resource/103047","lat":"52.4995","lng":"13.3017","label":"Wienerwald"},{"s":"http://tour-pedia.org/resource/103248","lat":"52.5165","lng":"13.3103","label":"Ihr Back-Paradies"},{"s":"http://tour-pedia.org/resource/103339","lat":"52.5069","lng":"13.2954","label":"Amtsgerichtsplatz (Berlin)"},{"s":"http://tour-pedia.org/resource/103560","lat":"52.5054","lng":"13.2973","label":"La Piadina Bistro Charlottenburg"},{"s":"http://tour-pedia.org/resource/103564","lat":"52.5122","lng":"13.3047","label":"Goodman's Living"},{"s":"http://tour-pedia.org/resource/103589","lat":"52.5014","lng":"13.2708","label":"LGBT Argentina @ ITB"},{"s":"http://tour-pedia.org/resource/103605","lat":"52.4947","lng":"13.3094","label":"artemisia"},{"s":"http://tour-pedia.org/resource/103634","lat":"52.4967","lng":"13.3083","label":"Hotel-Pension Margrit"},{"s":"http://tour-pedia.org/resource/103696","lat":"52.4989","lng":"13.3144","label":"Pho 56"},{"s":"http://tour-pedia.org/resource/103942","lat":"52.4966","lng":"13.2915","label":"Henriette - Die Eismeisterei"},{"s":"http://tour-pedia.org/resource/104158","lat":"52.5265","lng":"13.3048","label":"Flasco"},{"s":"http://tour-pedia.org/resource/104200","lat":"52.5194","lng":"13.2918","label":"Schlosspark Charlottenburg"},{"s":"http://tour-pedia.org/resource/104280","lat":"52.525","lng":"13.3036","label":"coffee meer"},{"s":"http://tour-pedia.org/resource/104304","lat":"52.4864","lng":"13.319","label":"Ristorante \"Ischia\""},{"s":"http://tour-pedia.org/resource/104357","lat":"52.5212","lng":"13.3002","label":"Siesta"},{"s":"http://tour-pedia.org/resource/104497","lat":"52.5004","lng":"13.3102","label":"Dermatologie des Westens"},{"s":"http://tour-pedia.org/resource/104557","lat":"52.4851","lng":"13.3208","label":"Phat Thai Food"},{"s":"http://tour-pedia.org/resource/104581","lat":"52.5014","lng":"13.3179","label":"HAUS CUMBERLAND"},{"s":"http://tour-pedia.org/resource/104945","lat":"52.4983","lng":"13.2717","label":"Eichkampbrücke"},{"s":"http://tour-pedia.org/resource/105216","lat":"52.4988","lng":"13.2704","label":"S Messe Süd (Berlin)"},{"s":"http://tour-pedia.org/resource/105441","lat":"52.5035","lng":"13.3067","label":"Wiesner Kurt-Reiner Dr. Zahnarzt"},{"s":"http://tour-pedia.org/resource/105462","lat":"52.507","lng":"13.3082","label":"Kantkino"},{"s":"http://tour-pedia.org/resource/105555","lat":"52.5244","lng":"13.3049","label":"Zum kleinen Markt"},{"s":"http://tour-pedia.org/resource/105663","lat":"52.5051","lng":"13.3009","label":"HappyGoLucky Hotel"},{"s":"http://tour-pedia.org/resource/105807","lat":"52.508","lng":"13.3042","label":"Chalkias Restaurant"},{"s":"http://tour-pedia.org/resource/105853","lat":"52.4986","lng":"13.3183","label":"Berlin City Lounge Hostel & Guesthouse"},{"s":"http://tour-pedia.org/resource/105867","lat":"52.4904","lng":"13.3139","label":"Carnivore"},{"s":"http://tour-pedia.org/resource/106055","lat":"52.4894","lng":"13.317","label":"Pizzaria Tarlo"},{"s":"http://tour-pedia.org/resource/106058","lat":"52.4899","lng":"13.3139","label":"Falafel Hammurabi"},{"s":"http://tour-pedia.org/resource/106327","lat":"52.4877","lng":"13.2994","label":"Il Gusto"},{"s":"http://tour-pedia.org/resource/106411","lat":"52.4902","lng":"13.314","label":"Truc-xinh"},{"s":"http://tour-pedia.org/resource/106770","lat":"52.4989","lng":"13.3076","label":"Hotel Pension Xantener Eck"},{"s":"http://tour-pedia.org/resource/107019","lat":"52.4974","lng":"13.2959","label":"Dr. med. Matthias Robert"},{"s":"http://tour-pedia.org/resource/107023","lat":"52.5117","lng":"13.3123","label":"ibis Styles Berlin an der Oper"},{"s":"http://tour-pedia.org/resource/107027","lat":"52.4988","lng":"13.2999","label":"Cicero-Wiese"},{"s":"http://tour-pedia.org/resource/107098","lat":"52.4971","lng":"13.2853","label":"Nordwind"},{"s":"http://tour-pedia.org/resource/107513","lat":"52.492","lng":"13.3091","label":"Bakers Drive"},{"s":"http://tour-pedia.org/resource/107520","lat":"52.4998","lng":"13.3059","label":"Palm Beach"},{"s":"http://tour-pedia.org/resource/107705","lat":"52.5063","lng":"13.3105","label":"papaya Kantstrasse"},{"s":"http://tour-pedia.org/resource/107819","lat":"52.4999","lng":"13.3062","label":"Bus M29"},{"s":"http://tour-pedia.org/resource/107849","lat":"52.5069","lng":"13.3062","label":"arztpraxis Schranz Fischer"},{"s":"http://tour-pedia.org/resource/107899","lat":"52.4899","lng":"13.3144","label":"Schlemmermarkt Fehrbeliner Platz"},{"s":"http://tour-pedia.org/resource/107907","lat":"52.499","lng":"13.3109","label":"Ars Vini"},{"s":"http://tour-pedia.org/resource/107908","lat":"52.5304","lng":"13.2994","label":"Jungfernheide"},{"s":"http://tour-pedia.org/resource/107911","lat":"52.5119","lng":"13.3213","label":"PASTA eccetera"},{"s":"http://tour-pedia.org/resource/107979","lat":"52.5097","lng":"13.3012","label":"Cafe Wallenstein"},{"s":"http://tour-pedia.org/resource/108062","lat":"52.4999","lng":"13.3092","label":"Art & Champagne"},{"s":"http://tour-pedia.org/resource/108202","lat":"52.5063","lng":"13.3068","label":"Charlottenburg-Wilmersdorf"},{"s":"http://tour-pedia.org/resource/108232","lat":"52.5189","lng":"13.3013","label":"Galija"},{"s":"http://tour-pedia.org/resource/108334","lat":"52.5258","lng":"13.3061","label":"Mierendorfplatz"},{"s":"http://tour-pedia.org/resource/108611","lat":"52.5011","lng":"13.3176","label":"Restaurant Grosz"},{"s":"http://tour-pedia.org/resource/108791","lat":"52.4983","lng":"13.3191","label":"CUT! Moviecafe"},{"s":"http://tour-pedia.org/resource/108794","lat":"52.4866","lng":"13.3211","label":"Suppe & Kaffee"},{"s":"http://tour-pedia.org/resource/108890","lat":"52.5054","lng":"13.3024","label":"Alberts"},{"s":"http://tour-pedia.org/resource/108973","lat":"52.5257","lng":"13.3103","label":"chekiang"},{"s":"http://tour-pedia.org/resource/109048","lat":"52.5044","lng":"13.3029","label":"Regionalbahnsteig Bhf Berlin Charlottenburg"},{"s":"http://tour-pedia.org/resource/109079","lat":"52.499","lng":"13.3015","label":"Good Time Grill"},{"s":"http://tour-pedia.org/resource/109097","lat":"52.499","lng":"13.3","label":"Diagnostikum Berlin Kurfürstendamm"},{"s":"http://tour-pedia.org/resource/109185","lat":"52.4884","lng":"13.3078","label":"Русская православная церковь"},{"s":"http://tour-pedia.org/resource/109629","lat":"52.4978","lng":"13.2968","label":"Dr. med. Frank Christoph"},{"s":"http://tour-pedia.org/resource/109756","lat":"52.5089","lng":"13.2965","label":"Zahnarztpraxis Boris Shrage"},{"s":"http://tour-pedia.org/resource/109909","lat":"52.5061","lng":"13.2836","label":"Isabell Voetz Praxisgemeinschaft Lietzensee"},{"s":"http://tour-pedia.org/resource/110003","lat":"52.5118","lng":"13.3048","label":"sporthopaedicum Berlin"},{"s":"http://tour-pedia.org/resource/110043","lat":"52.4997","lng":"13.3143","label":"NY Berlin by Lanninger"},{"s":"http://tour-pedia.org/resource/110078","lat":"52.5045","lng":"13.3122","label":"CityArt Hotel"},{"s":"http://tour-pedia.org/resource/110171","lat":"52.5008","lng":"13.3193","label":"Hotel Kurfürst"},{"s":"http://tour-pedia.org/resource/110199","lat":"52.4866","lng":"13.3214","label":"Bauer, Thomas, Dr. med. u. Claudia Kahriman"},{"s":"http://tour-pedia.org/resource/110304","lat":"52.5066","lng":"13.3059","label":"Domicil Hotel Berlin"},{"s":"http://tour-pedia.org/resource/110651","lat":"52.4996","lng":"13.3048","label":"Bar Vesper"},{"s":"http://tour-pedia.org/resource/110675","lat":"52.5075","lng":"13.3055","label":"Randori Pro - Kampfsport"},{"s":"http://tour-pedia.org/resource/110701","lat":"52.5097","lng":"13.2816","label":"Nour"},{"s":"http://tour-pedia.org/resource/111061","lat":"52.5002","lng":"13.3111","label":"Busch Guido-Alexander Dr.med."},{"s":"http://tour-pedia.org/resource/111182","lat":"52.5217","lng":"13.3049","label":"Österreich Park"},{"s":"http://tour-pedia.org/resource/111382","lat":"52.507","lng":"13.2837","label":"Hotel Messe am Funkturm"},{"s":"http://tour-pedia.org/resource/111554","lat":"52.5053","lng":"13.3008","label":"Galander"},{"s":"http://tour-pedia.org/resource/111632","lat":"52.4866","lng":"13.3214","label":"Dr. med. Ursula Feilke"},{"s":"http://tour-pedia.org/resource/111881","lat":"52.4974","lng":"13.2912","label":"Cups Coffee"},{"s":"http://tour-pedia.org/resource/112047","lat":"52.5017","lng":"13.3182","label":"Dr. med. Olaf Karl Kauder"},{"s":"http://tour-pedia.org/resource/112049","lat":"52.505","lng":"13.2835","label":"Enjoy Kebab"},{"s":"http://tour-pedia.org/resource/112311","lat":"52.5055","lng":"13.3046","label":"Tahala"},{"s":"http://tour-pedia.org/resource/112318","lat":"52.4996","lng":"13.306","label":"Palm Beach Cocktailbar"},{"s":"http://tour-pedia.org/resource/112431","lat":"52.4978","lng":"13.3121","label":"NoBar"},{"s":"http://tour-pedia.org/resource/112699","lat":"52.5064","lng":"13.2997","label":"Orangerie"},{"s":"http://tour-pedia.org/resource/112756","lat":"52.5071","lng":"13.3063","label":"Dr. med. Benny Levenson"},{"s":"http://tour-pedia.org/resource/112764","lat":"52.498","lng":"13.3192","label":"Gandhara"},{"s":"http://tour-pedia.org/resource/113061","lat":"52.5051","lng":"13.3005","label":"Brasserie Lamazère"},{"s":"http://tour-pedia.org/resource/113221","lat":"52.4971","lng":"13.2878","label":"Bänkchen Bornstedter Str"},{"s":"http://tour-pedia.org/resource/113610","lat":"52.4988","lng":"13.2903","label":"burgerme"},{"s":"http://tour-pedia.org/resource/113879","lat":"52.5129","lng":"13.3126","label":"TortenheBär"},{"s":"http://tour-pedia.org/resource/114055","lat":"52.4866","lng":"13.3214","label":"Tchibo GmbH"},{"s":"http://tour-pedia.org/resource/114279","lat":"52.4971","lng":"13.3125","label":"Finns' Inn"},{"s":"http://tour-pedia.org/resource/112331","lat":"52.4984","lng":"13.2905","label":"3GoldGourmet"},{"s":"http://tour-pedia.org/resource/252865","lat":"52.5173","lng":"13.304","label":"Keramik museum"},{"s":"http://tour-pedia.org/resource/252867","lat":"52.5085","lng":"13.3059","label":"SUPERFIT Charlottenburg"},{"s":"http://tour-pedia.org/resource/252872","lat":"52.5057","lng":"13.2993","label":"Ahoy Berlin Coworking & Innovation"},{"s":"http://tour-pedia.org/resource/252874","lat":"52.5151","lng":"13.3049","label":"Darkline-Tattoo"},{"s":"http://tour-pedia.org/resource/252877","lat":"52.5048","lng":"13.2982","label":"figurMANUFAKTUR"},{"s":"http://tour-pedia.org/resource/252916","lat":"52.5192","lng":"13.3208","label":"salz-club"},{"s":"http://tour-pedia.org/resource/252932","lat":"52.5044","lng":"13.3197","label":"Filmkunst 66"},{"s":"http://tour-pedia.org/resource/252933","lat":"52.5067","lng":"13.3083","label":"Kant Kino"},{"s":"http://tour-pedia.org/resource/252934","lat":"52.5059","lng":"13.3188","label":"Kashima - Tantra Massage Berlin"},{"s":"http://tour-pedia.org/resource/252936","lat":"52.5111","lng":"13.3088","label":"Studio 90 Fitnesslounge GmbH"},{"s":"http://tour-pedia.org/resource/252937","lat":"52.5039","lng":"13.3088","label":"Factory-Art gallery"},{"s":"http://tour-pedia.org/resource/252939","lat":"52.5115","lng":"13.3085","label":"Tabu Bar Tabledance Club"},{"s":"http://tour-pedia.org/resource/252942","lat":"52.5066","lng":"13.3114","label":"Galerie of Modern Art Peter Bauer e.K."},{"s":"http://tour-pedia.org/resource/252947","lat":"52.5072","lng":"13.3062","label":"Sportschule Randori-Pro Charlottenburg GmbH"},{"s":"http://tour-pedia.org/resource/252948","lat":"52.5081","lng":"13.3194","label":"Galerie Petra Lange Galerien"},{"s":"http://tour-pedia.org/resource/252959","lat":"52.5055","lng":"13.3202","label":"Galerie Dogon"},{"s":"http://tour-pedia.org/resource/253879","lat":"52.4994","lng":"13.3121","label":"Cosmetic Institut Beauty Lux"},{"s":"http://tour-pedia.org/resource/253930","lat":"52.4847","lng":"13.32","label":"Eva-Lichtspiele"},{"s":"http://tour-pedia.org/resource/542228","lat":"52.5001","lng":"13.3098","label":"City Hotel am Kurfürstendamm"},{"s":"http://tour-pedia.org/resource/95310","lat":"52.5008","lng":"13.3132","label":"Chimanos"},{"s":"http://tour-pedia.org/resource/95342","lat":"52.5063","lng":"13.3127","label":"Kantstraße"},{"s":"http://tour-pedia.org/resource/95375","lat":"52.4992","lng":"13.3124","label":"QBA"},{"s":"http://tour-pedia.org/resource/95405","lat":"52.5078","lng":"13.309","label":"Istanbul Restaurant"},{"s":"http://tour-pedia.org/resource/95407","lat":"52.5056","lng":"13.3072","label":"Max & Moritz"},{"s":"http://tour-pedia.org/resource/95459","lat":"52.5101","lng":"13.2802","label":"Trattoria Milano"},{"s":"http://tour-pedia.org/resource/95474","lat":"52.5058","lng":"13.3152","label":"El Borriquito"},{"s":"http://tour-pedia.org/resource/95477","lat":"52.5056","lng":"13.3137","label":"King Karaoke"},{"s":"http://tour-pedia.org/resource/95479","lat":"52.5059","lng":"13.3023","label":"Zum Hecht"},{"s":"http://tour-pedia.org/resource/95496","lat":"52.5016","lng":"13.3189","label":"Hotel Mondial  · Partner of SORAT Hotels"},{"s":"http://tour-pedia.org/resource/95507","lat":"52.504","lng":"13.3196","label":"Restaurant Cafe Bleibtreu"},{"s":"http://tour-pedia.org/resource/95547","lat":"52.5089","lng":"13.307","label":"Cantinetta"},{"s":"http://tour-pedia.org/resource/95553","lat":"52.4995","lng":"13.3213","label":"Abba Berlin Hotel"},{"s":"http://tour-pedia.org/resource/95595","lat":"52.5256","lng":"13.3078","label":"Al-Omara"},{"s":"http://tour-pedia.org/resource/95596","lat":"52.51","lng":"13.2966","label":"Stella Alpina"},{"s":"http://tour-pedia.org/resource/95614","lat":"52.5147","lng":"13.3012","label":"La Dentista -Ihre Zahnexperten"},{"s":"http://tour-pedia.org/resource/95669","lat":"52.4998","lng":"13.304","label":"Roberta caffè e gelateria"},{"s":"http://tour-pedia.org/resource/95726","lat":"52.5016","lng":"13.3211","label":"Restaurant Capone"},{"s":"http://tour-pedia.org/resource/95777","lat":"52.5198","lng":"13.2992","label":"Eosander"},{"s":"http://tour-pedia.org/resource/95826","lat":"52.4985","lng":"13.2909","label":"Spielplatz Indiana Jones"},{"s":"http://tour-pedia.org/resource/95875","lat":"52.5117","lng":"13.3121","label":"Sushi Berlin"},{"s":"http://tour-pedia.org/resource/95892","lat":"52.5061","lng":"13.3176","label":"La Forneria"},{"s":"http://tour-pedia.org/resource/96063","lat":"52.5192","lng":"13.3185","label":"Griechische Taverna AMBROSIOS"},{"s":"http://tour-pedia.org/resource/96106","lat":"52.5172","lng":"13.3094","label":"Rathaus Piazza"},{"s":"http://tour-pedia.org/resource/96111","lat":"52.5068","lng":"13.2839","label":"Paella"},{"s":"http://tour-pedia.org/resource/96135","lat":"52.5043","lng":"13.3198","label":"Nibs"},{"s":"http://tour-pedia.org/resource/96145","lat":"52.5063","lng":"13.3165","label":"Lon-Men's Noodle House"},{"s":"http://tour-pedia.org/resource/96205","lat":"52.4996","lng":"13.3018","label":"Locanda Restaurant"},{"s":"http://tour-pedia.org/resource/96211","lat":"52.5081","lng":"13.3176","label":"Union Jack - The Whiskey Pub"},{"s":"http://tour-pedia.org/resource/96215","lat":"52.4985","lng":"13.3203","label":"Kinderarzt Reichert"},{"s":"http://tour-pedia.org/resource/96249","lat":"52.5064","lng":"13.299","label":"Genazvale"},{"s":"http://tour-pedia.org/resource/96254","lat":"52.5068","lng":"13.3139","label":"Vodkalounge"},{"s":"http://tour-pedia.org/resource/96307","lat":"52.5073","lng":"13.3066","label":"Dunkin' Donuts"},{"s":"http://tour-pedia.org/resource/96318","lat":"52.5133","lng":"13.3048","label":"Eckert's Currywurst"},{"s":"http://tour-pedia.org/resource/96341","lat":"52.5058","lng":"13.3069","label":"Meviva"},{"s":"http://tour-pedia.org/resource/96353","lat":"52.5079","lng":"13.3095","label":"Thomas Eck"},{"s":"http://tour-pedia.org/resource/96361","lat":"52.497","lng":"13.2895","label":"Pizza Pick"},{"s":"http://tour-pedia.org/resource/96386","lat":"52.5042","lng":"13.3163","label":"Hotel Elegia"},{"s":"http://tour-pedia.org/resource/96418","lat":"52.5","lng":"13.3101","label":"Hotel Comet am Kurfürstendamm"},{"s":"http://tour-pedia.org/resource/96423","lat":"52.4977","lng":"13.3212","label":"Ludwigkirchplatz"},{"s":"http://tour-pedia.org/resource/96560","lat":"52.5048","lng":"13.2806","label":"Medienwoche @ IFA"},{"s":"http://tour-pedia.org/resource/96585","lat":"52.5145","lng":"13.305","label":"Genki Sushi"},{"s":"http://tour-pedia.org/resource/96627","lat":"52.503","lng":"13.3136","label":"Restaurant Leibniz-Klause"},{"s":"http://tour-pedia.org/resource/96629","lat":"52.5116","lng":"13.2971","label":"XL Döner Sophie"},{"s":"http://tour-pedia.org/resource/96716","lat":"52.5118","lng":"13.3182","label":"Staatsoper im Schiller Theater"},{"s":"http://tour-pedia.org/resource/96729","lat":"52.5008","lng":"13.282","label":"Artemis"},{"s":"http://tour-pedia.org/resource/96874","lat":"52.4811","lng":"13.3203","label":"Rabab"},{"s":"http://tour-pedia.org/resource/96932","lat":"52.5209","lng":"13.2999","label":"Samowar"},{"s":"http://tour-pedia.org/resource/96961","lat":"52.513","lng":"13.3202","label":"TELquel"},{"s":"http://tour-pedia.org/resource/97004","lat":"52.5148","lng":"13.3091","label":"Stadtbad Charlottenburg - Neue Halle"},{"s":"http://tour-pedia.org/resource/97085","lat":"52.5069","lng":"13.3002","label":"Hotel Cityblick"},{"s":"http://tour-pedia.org/resource/97087","lat":"52.4992","lng":"13.3138","label":"Backshop e' Cafe"},{"s":"http://tour-pedia.org/resource/97111","lat":"52.4905","lng":"13.3145","label":"Fehrbelliner Platz"},{"s":"http://tour-pedia.org/resource/97120","lat":"52.5011","lng":"13.3087","label":"Dr. med. Mathias Walden"},{"s":"http://tour-pedia.org/resource/97163","lat":"52.499","lng":"13.3123","label":"Olivaer Apart Hotel am Kurfürstendamm"},{"s":"http://tour-pedia.org/resource/97170","lat":"52.499","lng":"13.3104","label":"Arta Lenz Hotel"},{"s":"http://tour-pedia.org/resource/97172","lat":"52.5068","lng":"13.2843","label":"Pension Messe"},{"s":"http://tour-pedia.org/resource/97263","lat":"52.4984","lng":"13.3175","label":"Friends Cocktailbar"},{"s":"http://tour-pedia.org/resource/97346","lat":"52.5021","lng":"13.313","label":"KLO"},{"s":"http://tour-pedia.org/resource/97462","lat":"52.5009","lng":"13.2978","label":"Vietnam Imbiss"},{"s":"http://tour-pedia.org/resource/97536","lat":"52.5194","lng":"13.2998","label":"Little Tokyo"},{"s":"http://tour-pedia.org/resource/97546","lat":"52.5236","lng":"13.3055","label":"Sporthalle Charlottenburg"},{"s":"http://tour-pedia.org/resource/97548","lat":"52.5173","lng":"13.3063","label":"Richard-Wagner-Platz"},{"s":"http://tour-pedia.org/resource/97577","lat":"52.5136","lng":"13.3055","label":"Exclusive Coffe"},{"s":"http://tour-pedia.org/resource/97590","lat":"52.5069","lng":"13.3042","label":"Sakorn Thailaendische Kueche"},{"s":"http://tour-pedia.org/resource/97643","lat":"52.509","lng":"13.3071","label":"Katsudo"},{"s":"http://tour-pedia.org/resource/97669","lat":"52.4968","lng":"13.2926","label":"De Santi"},{"s":"http://tour-pedia.org/resource/97694","lat":"52.4894","lng":"13.3079","label":"Hotel Villa Konstanz"},{"s":"http://tour-pedia.org/resource/97770","lat":"52.5208","lng":"13.3212","label":"Helmholtzstr. (Berlin)"},{"s":"http://tour-pedia.org/resource/97832","lat":"52.5076","lng":"13.3095","label":"Barbar Bar"},{"s":"http://tour-pedia.org/resource/97851","lat":"52.4984","lng":"13.304","label":"Finanzamt Wilmersdorf"},{"s":"http://tour-pedia.org/resource/97853","lat":"52.4971","lng":"13.2924","label":"Lusiada"},{"s":"http://tour-pedia.org/resource/97862","lat":"52.5154","lng":"13.3049","label":"Kibar"},{"s":"http://tour-pedia.org/resource/97892","lat":"52.4976","lng":"13.2919","label":"Ristorante Rapallo"},{"s":"http://tour-pedia.org/resource/97910","lat":"52.5004","lng":"13.3105","label":"Zeitlos"},{"s":"http://tour-pedia.org/resource/97932","lat":"52.5134","lng":"13.3071","label":"Charlottenburg"},{"s":"http://tour-pedia.org/resource/97938","lat":"52.5002","lng":"13.3118","label":"Come Inn Berlin Kurfürstendamm Opera"},{"s":"http://tour-pedia.org/resource/97947","lat":"52.4981","lng":"13.3001","label":"Liquor Store"},{"s":"http://tour-pedia.org/resource/97957","lat":"52.5063","lng":"13.2849","label":"Pianocafe am Lietzensee"},{"s":"http://tour-pedia.org/resource/98053","lat":"52.5093","lng":"13.3076","label":"Café Lisboa"},{"s":"http://tour-pedia.org/resource/98127","lat":"52.5256","lng":"13.3097","label":"Zum Straßenfeger"},{"s":"http://tour-pedia.org/resource/98161","lat":"52.5101","lng":"13.2811","label":"Dunkin' Donuts"},{"s":"http://tour-pedia.org/resource/98256","lat":"52.5122","lng":"13.3124","label":"Hommerich Verena Dr. med."},{"s":"http://tour-pedia.org/resource/98261","lat":"52.5066","lng":"13.3039","label":"Hotel Arche"},{"s":"http://tour-pedia.org/resource/98458","lat":"52.512","lng":"13.2975","label":"China-Restaurant Ming Jia"},{"s":"http://tour-pedia.org/resource/98476","lat":"52.5109","lng":"13.2986","label":"La Strada"},{"s":"http://tour-pedia.org/resource/98496","lat":"52.5129","lng":"13.3199","label":"Telefunkenhaus Parkplatz"},{"s":"http://tour-pedia.org/resource/98521","lat":"52.5004","lng":"13.3073","label":"Adenauerplatz"},{"s":"http://tour-pedia.org/resource/98545","lat":"52.5208","lng":"13.3072","label":"Caprivi"},{"s":"http://tour-pedia.org/resource/98604","lat":"52.5156","lng":"13.3036","label":"Hotel Haubach"},{"s":"http://tour-pedia.org/resource/98623","lat":"52.51","lng":"13.3041","label":"Ristorante Trattoria Roma"},{"s":"http://tour-pedia.org/resource/98654","lat":"52.505","lng":"13.3212","label":"CROSS Finest Deli"},{"s":"http://tour-pedia.org/resource/98738","lat":"52.5086","lng":"13.3056","label":"Haema Blutspendezentrum"},{"s":"http://tour-pedia.org/resource/98789","lat":"52.513","lng":"13.2967","label":"Giga Potato"},{"s":"http://tour-pedia.org/resource/98802","lat":"52.5023","lng":"13.3197","label":"Bäcker Walf GmbH"},{"s":"http://tour-pedia.org/resource/98831","lat":"52.4993","lng":"13.3021","label":"Lehniner Platz"},{"s":"http://tour-pedia.org/resource/98843","lat":"52.5067","lng":"13.2803","label":"China Restaurant Panda III"},{"s":"http://tour-pedia.org/resource/98884","lat":"52.5063","lng":"13.2844","label":"La Pergola"},{"s":"http://tour-pedia.org/resource/98987","lat":"52.4995","lng":"13.3072","label":"Bellucci Ristorante & Bar"},{"s":"http://tour-pedia.org/resource/99089","lat":"52.5057","lng":"13.3042","label":"Hotel Abendstern"},{"s":"http://tour-pedia.org/resource/99185","lat":"52.5057","lng":"13.3044","label":"AI Königshof"},{"s":"http://tour-pedia.org/resource/99218","lat":"52.4967","lng":"13.2892","label":"Kurfürstendammbrücke"},{"s":"http://tour-pedia.org/resource/99246","lat":"52.4972","lng":"13.2876","label":"Greece"},{"s":"http://tour-pedia.org/resource/99404","lat":"52.5051","lng":"13.3007","label":"Stuttgarter Platz"},{"s":"http://tour-pedia.org/resource/99411","lat":"52.5262","lng":"13.3052","label":"Mierendorffplatz"},{"s":"http://tour-pedia.org/resource/99443","lat":"52.5028","lng":"13.3152","label":"Hotel Pension Ingeborg"},{"s":"http://tour-pedia.org/resource/99454","lat":"52.5002","lng":"13.3147","label":"Hotel Castell"},{"s":"http://tour-pedia.org/resource/99518","lat":"52.4978","lng":"13.2955","label":"Sayuri - Sushi Nudeln Tempura"},{"s":"http://tour-pedia.org/resource/99580","lat":"52.5098","lng":"13.3055","label":"Eiscafe \"Fantasia del Gelato\""},{"s":"http://tour-pedia.org/resource/99616","lat":"52.514","lng":"13.2963","label":"Zur weißen Kastanie"},{"s":"http://tour-pedia.org/resource/99624","lat":"52.5068","lng":"13.306","label":"Pizzaria Ristorante Buongiorno"},{"s":"http://tour-pedia.org/resource/99630","lat":"52.5103","lng":"13.2844","label":"Thoben's Backwaren"},{"s":"http://tour-pedia.org/resource/99656","lat":"52.5103","lng":"13.2813","label":"medzentrum26"},{"s":"http://tour-pedia.org/resource/99678","lat":"52.5","lng":"13.3099","label":"Hotel Comet"},{"s":"http://tour-pedia.org/resource/99690","lat":"52.5111","lng":"13.2953","label":"Polizeidirektion 2, Abschnitt 24"},{"s":"http://tour-pedia.org/resource/99714","lat":"52.5031","lng":"13.3184","label":"Hotel-Pension Waizenegger"},{"s":"http://tour-pedia.org/resource/99765","lat":"52.5145","lng":"13.3148","label":"Bushaltestelle Otto-Suhr-Allee / Leibnizstraße"},{"s":"http://tour-pedia.org/resource/99813","lat":"52.4984","lng":"13.3073","label":"Hotel-Maison Am Adenauerplatz"},{"s":"http://tour-pedia.org/resource/99851","lat":"52.5005","lng":"13.3192","label":"Bleibtreustraße"},{"s":"http://tour-pedia.org/resource/99885","lat":"52.5133","lng":"13.3189","label":"Zahnärzte Dr. Olaf Lewitzki und Bernd Kusch"},{"s":"http://tour-pedia.org/resource/99910","lat":"52.4882","lng":"13.3009","label":"Hohenzollerndammbrücke"},{"s":"http://tour-pedia.org/resource/99917","lat":"52.5146","lng":"13.305","label":"muto Cafe Bar Restaurant"},{"s":"http://tour-pedia.org/resource/99922","lat":"52.5","lng":"13.3059","label":"Einstein Coffeeshop"},{"s":"http://tour-pedia.org/resource/324158","lat":"52.5146","lng":"13.3013","label":"Thai Restaurant Kien-du-Kiang-thong"},{"s":"http://tour-pedia.org/resource/324166","lat":"52.5206","lng":"13.2997","label":"Piazza del Castello"},{"s":"http://tour-pedia.org/resource/324223","lat":"52.5098","lng":"13.2815","label":"Restaurant Luxor Berlin"},{"s":"http://tour-pedia.org/resource/324232","lat":"52.5103","lng":"13.2796","label":"Restaurant Spurensuche"},{"s":"http://tour-pedia.org/resource/324250","lat":"52.5101","lng":"13.2977","label":"Niki's Cakes The American Style Bakery"},{"s":"http://tour-pedia.org/resource/324251","lat":"52.512","lng":"13.2975","label":"Pizzeria Piccobello"},{"s":"http://tour-pedia.org/resource/324252","lat":"52.5105","lng":"13.294","label":"Restaurant am Nil"},{"s":"http://tour-pedia.org/resource/324253","lat":"52.5119","lng":"13.2944","label":"JoJo-Café Bar"},{"s":"http://tour-pedia.org/resource/324255","lat":"52.5102","lng":"13.2982","label":"Gaststätte Mirko"},{"s":"http://tour-pedia.org/resource/324256","lat":"52.5114","lng":"13.3006","label":"Vivo Pizzeria, Trattoria"},{"s":"http://tour-pedia.org/resource/324258","lat":"52.5116","lng":"13.2975","label":"Soffi Café Restaurant Bar"},{"s":"http://tour-pedia.org/resource/324259","lat":"52.5126","lng":"13.2944","label":"Luis - Bayrische Schmankerl"},{"s":"http://tour-pedia.org/resource/324266","lat":"52.5098","lng":"13.2976","label":"Caffé e Panini"},{"s":"http://tour-pedia.org/resource/324287","lat":"52.5077","lng":"13.2991","label":"Alt Luxemburg"},{"s":"http://tour-pedia.org/resource/324289","lat":"52.5047","lng":"13.2984","label":"Taj Mahal"},{"s":"http://tour-pedia.org/resource/324291","lat":"52.5059","lng":"13.2997","label":"Dal Buongustaio"},{"s":"http://tour-pedia.org/resource/324296","lat":"52.5069","lng":"13.3009","label":"Mi-Long"},{"s":"http://tour-pedia.org/resource/324301","lat":"52.5054","lng":"13.2995","label":"Excellent Event UG"},{"s":"http://tour-pedia.org/resource/324303","lat":"52.5071","lng":"13.3007","label":"Fräulein Fiona"},{"s":"http://tour-pedia.org/resource/324305","lat":"52.5051","lng":"13.2983","label":"Mani di Fata"},{"s":"http://tour-pedia.org/resource/324306","lat":"52.5076","lng":"13.2958","label":"whiskey in the jar"},{"s":"http://tour-pedia.org/resource/324308","lat":"52.5066","lng":"13.2985","label":"Pfefferkontor OHG"},{"s":"http://tour-pedia.org/resource/324341","lat":"52.521","lng":"13.3071","label":"CapRivi"},{"s":"http://tour-pedia.org/resource/324346","lat":"52.52","lng":"13.3199","label":"Aldi Nord"},{"s":"http://tour-pedia.org/resource/324353","lat":"52.5166","lng":"13.3069","label":"Chishkhan Shisha Bar"},{"s":"http://tour-pedia.org/resource/324355","lat":"52.5172","lng":"13.3081","label":"Gaststätte Ratskeller Charlottenburg"},{"s":"http://tour-pedia.org/resource/324356","lat":"52.5149","lng":"13.3028","label":"Taverna Elena"},{"s":"http://tour-pedia.org/resource/324357","lat":"52.5173","lng":"13.3054","label":"Lavandevil"},{"s":"http://tour-pedia.org/resource/324359","lat":"52.517","lng":"13.3063","label":"Restaurant Wendel"},{"s":"http://tour-pedia.org/resource/324361","lat":"52.5165","lng":"13.3035","label":"Sushi Matsuri"},{"s":"http://tour-pedia.org/resource/324365","lat":"52.5184","lng":"13.3095","label":"Edeka Reichelt Supermarkt"},{"s":"http://tour-pedia.org/resource/324367","lat":"52.5173","lng":"13.3063","label":"Bierhaus 3"},{"s":"http://tour-pedia.org/resource/324370","lat":"52.5149","lng":"13.3052","label":"Himalaya"},{"s":"http://tour-pedia.org/resource/324392","lat":"52.5177","lng":"13.3174","label":"Taverna Santorini"},{"s":"http://tour-pedia.org/resource/324393","lat":"52.5199","lng":"13.3197","label":"REWE"},{"s":"http://tour-pedia.org/resource/324394","lat":"52.518","lng":"13.3163","label":"Café Südwind"},{"s":"http://tour-pedia.org/resource/324395","lat":"52.519","lng":"13.3188","label":"coffee4you"},{"s":"http://tour-pedia.org/resource/324460","lat":"52.513","lng":"13.3052","label":"Rogacki"},{"s":"http://tour-pedia.org/resource/324461","lat":"52.5121","lng":"13.3109","label":"Don Giovanni"},{"s":"http://tour-pedia.org/resource/324463","lat":"52.5136","lng":"13.3068","label":"Papageno"},{"s":"http://tour-pedia.org/resource/324465","lat":"52.513","lng":"13.3043","label":"La Pignata"},{"s":"http://tour-pedia.org/resource/324467","lat":"52.5103","lng":"13.3058","label":"BK Wilmersdorf"},{"s":"http://tour-pedia.org/resource/324469","lat":"52.5091","lng":"13.3065","label":"Cantinetta - Trattoria & Pizzeria"},{"s":"http://tour-pedia.org/resource/324472","lat":"52.512","lng":"13.3089","label":"rdo Restaurant Deutsche Oper Berlin"},{"s":"http://tour-pedia.org/resource/324475","lat":"52.5091","lng":"13.3094","label":"My Thais Korat Küche"},{"s":"http://tour-pedia.org/resource/324476","lat":"52.5096","lng":"13.306","label":"Lidl"},{"s":"http://tour-pedia.org/resource/324477","lat":"52.5102","lng":"13.3054","label":"Dio"},{"s":"http://tour-pedia.org/resource/324478","lat":"52.5133","lng":"13.3048","label":"Do-Long /Gaststätte"},{"s":"http://tour-pedia.org/resource/324483","lat":"52.5107","lng":"13.3014","label":"King's Burger"},{"s":"http://tour-pedia.org/resource/324489","lat":"52.509","lng":"13.3062","label":"Wiener Feinbäckerei Heberer GmbH"},{"s":"http://tour-pedia.org/resource/324498","lat":"52.5107","lng":"13.3014","label":"Restaurant SIVA"},{"s":"http://tour-pedia.org/resource/324515","lat":"52.512","lng":"13.3165","label":"Café Keese"},{"s":"http://tour-pedia.org/resource/324516","lat":"52.5137","lng":"13.3176","label":"Kroatisches Restaurant Konoba"},{"s":"http://tour-pedia.org/resource/324518","lat":"52.51","lng":"13.3147","label":"Sing-Le Lieferservice"},{"s":"http://tour-pedia.org/resource/324521","lat":"52.5136","lng":"13.3186","label":"China Restaurant Capital City"},{"s":"http://tour-pedia.org/resource/324526","lat":"52.5116","lng":"13.3144","label":"Avantgarde"},{"s":"http://tour-pedia.org/resource/324541","lat":"52.5077","lng":"13.3041","label":"Cafe Fantone"},{"s":"http://tour-pedia.org/resource/324542","lat":"52.508","lng":"13.3049","label":"Green papaya"},{"s":"http://tour-pedia.org/resource/324543","lat":"52.5078","lng":"13.3024","label":"Partyservice Berlin"},{"s":"http://tour-pedia.org/resource/324547","lat":"52.5074","lng":"13.3092","label":"LaBatea"},{"s":"http://tour-pedia.org/resource/324548","lat":"52.5083","lng":"13.3064","label":"Karstadt Berlin, Charlottenburg"},{"s":"http://tour-pedia.org/resource/324549","lat":"52.5081","lng":"13.3089","label":"Deutsches Restaurant Thomas-Eck"},{"s":"http://tour-pedia.org/resource/324550","lat":"52.508","lng":"13.3087","label":"Karun Bistro"},{"s":"http://tour-pedia.org/resource/324551","lat":"52.5078","lng":"13.3092","label":"Cafe Restaurant FELIZ"},{"s":"http://tour-pedia.org/resource/324553","lat":"52.5078","lng":"13.3096","label":"Michel Eis GbR"},{"s":"http://tour-pedia.org/resource/324554","lat":"52.5078","lng":"13.309","label":"Limerick"},{"s":"http://tour-pedia.org/resource/324556","lat":"52.5085","lng":"13.3056","label":"Netto Marken-Discount - Filiale"},{"s":"http://tour-pedia.org/resource/324563","lat":"52.5053","lng":"13.3023","label":"Rossia Imbiss & Supermarkt"},{"s":"http://tour-pedia.org/resource/324564","lat":"52.5054","lng":"13.302","label":"Orchidee Asiatisches Restaurant"},{"s":"http://tour-pedia.org/resource/324565","lat":"52.5052","lng":"13.301","label":"Focaccino"},{"s":"http://tour-pedia.org/resource/324566","lat":"52.5069","lng":"13.3041","label":"Portofino Ristorante-Pizzeria"},{"s":"http://tour-pedia.org/resource/324567","lat":"52.5066","lng":"13.3027","label":"Go Asia"},{"s":"http://tour-pedia.org/resource/324568","lat":"52.5069","lng":"13.3036","label":"Heno Heno"},{"s":"http://tour-pedia.org/resource/324569","lat":"52.5069","lng":"13.3049","label":"Domino's Pizza Germany GmbH"},{"s":"http://tour-pedia.org/resource/324571","lat":"52.5069","lng":"13.3041","label":"Berliner Eisbär Eisdielen-Betriebs-GmbH"},{"s":"http://tour-pedia.org/resource/324572","lat":"52.5058","lng":"13.3017","label":"Gaststätte 'Zum Hecht'"},{"s":"http://tour-pedia.org/resource/324573","lat":"52.5059","lng":"13.3013","label":"Berliner Teesalon"},{"s":"http://tour-pedia.org/resource/324574","lat":"52.5069","lng":"13.3049","label":"Domino´s Pizza"},{"s":"http://tour-pedia.org/resource/324575","lat":"52.5057","lng":"13.3046","label":"Oxygen Cocktailbar Restaurant"},{"s":"http://tour-pedia.org/resource/324581","lat":"52.5061","lng":"13.3099","label":"Do De Li"},{"s":"http://tour-pedia.org/resource/324582","lat":"52.5064","lng":"13.3098","label":"boobuk Bubble Tea"},{"s":"http://tour-pedia.org/resource/324583","lat":"52.5064","lng":"13.3094","label":"Udagawa-Imbiss"},{"s":"http://tour-pedia.org/resource/324586","lat":"52.5062","lng":"13.3066","label":"Back-Factory"},{"s":"http://tour-pedia.org/resource/324597","lat":"52.5077","lng":"13.3114","label":"Biscotti"},{"s":"http://tour-pedia.org/resource/324598","lat":"52.5087","lng":"13.3141","label":"Mythos"},{"s":"http://tour-pedia.org/resource/324601","lat":"52.5072","lng":"13.3138","label":"L'Olivo Restaurant"},{"s":"http://tour-pedia.org/resource/324610","lat":"52.5073","lng":"13.3201","label":"A-Trane"},{"s":"http://tour-pedia.org/resource/324611","lat":"52.5072","lng":"13.3204","label":"Trattoria Totó"},{"s":"http://tour-pedia.org/resource/324612","lat":"52.5086","lng":"13.32","label":"Ajanta Restaurant"},{"s":"http://tour-pedia.org/resource/324614","lat":"52.5073","lng":"13.3207","label":"Sakana"},{"s":"http://tour-pedia.org/resource/324616","lat":"52.5077","lng":"13.3184","label":"Vaust - Braugaststätte Berlin"},{"s":"http://tour-pedia.org/resource/324617","lat":"52.508","lng":"13.3209","label":"Maremoto"},{"s":"http://tour-pedia.org/resource/324620","lat":"52.5088","lng":"13.3169","label":"Teeladen Goethestraße"},{"s":"http://tour-pedia.org/resource/324623","lat":"52.5088","lng":"13.3182","label":"Ristorante Caffé Bocconi"},{"s":"http://tour-pedia.org/resource/324630","lat":"52.5056","lng":"13.3136","label":"King Karaoke Berlin"},{"s":"http://tour-pedia.org/resource/324631","lat":"52.5067","lng":"13.3147","label":"Furusato"},{"s":"http://tour-pedia.org/resource/324632","lat":"52.507","lng":"13.3138","label":"Aldi Nord"},{"s":"http://tour-pedia.org/resource/324633","lat":"52.507","lng":"13.3142","label":"Vodkalounge \"liquid cuisine\""},{"s":"http://tour-pedia.org/resource/324636","lat":"52.5045","lng":"13.3154","label":"Cucina Comoda Trattoria"},{"s":"http://tour-pedia.org/resource/324648","lat":"52.5045","lng":"13.32","label":"Lubitsch"},{"s":"http://tour-pedia.org/resource/324649","lat":"52.5062","lng":"13.3182","label":"Kuchi Kant Restaurant"},{"s":"http://tour-pedia.org/resource/324650","lat":"52.5055","lng":"13.3199","label":"Restaurant Kushinoya"},{"s":"http://tour-pedia.org/resource/324651","lat":"52.5051","lng":"13.3198","label":"Filou"},{"s":"http://tour-pedia.org/resource/324652","lat":"52.5044","lng":"13.3175","label":"Lutter & Wegner"},{"s":"http://tour-pedia.org/resource/324653","lat":"52.5043","lng":"13.32","label":"Repke Spätzlerei"},{"s":"http://tour-pedia.org/resource/324654","lat":"52.5058","lng":"13.3205","label":"Aki Tatsu"},{"s":"http://tour-pedia.org/resource/324655","lat":"52.5063","lng":"13.321","label":"Shanghai China Restaurant"},{"s":"http://tour-pedia.org/resource/324657","lat":"52.5064","lng":"13.3203","label":"Ristorante Osteria Centrale"},{"s":"http://tour-pedia.org/resource/324658","lat":"52.5067","lng":"13.3179","label":"Enoteca Toscana"},{"s":"http://tour-pedia.org/resource/324659","lat":"52.5059","lng":"13.317","label":"Kant-Café"},{"s":"http://tour-pedia.org/resource/324660","lat":"52.506","lng":"13.3162","label":"Abraxas"},{"s":"http://tour-pedia.org/resource/324661","lat":"52.506","lng":"13.3162","label":"Thai Food Sawaddie"},{"s":"http://tour-pedia.org/resource/324665","lat":"52.5061","lng":"13.3204","label":"EDEKA Jost & Jost"},{"s":"http://tour-pedia.org/resource/324666","lat":"52.5066","lng":"13.32","label":"P & T - Paper & Tea GmbH"},{"s":"http://tour-pedia.org/resource/324667","lat":"52.5061","lng":"13.3208","label":"Saigon Green"},{"s":"http://tour-pedia.org/resource/324669","lat":"52.5052","lng":"13.321","label":"Fürst & Iven GmbH"},{"s":"http://tour-pedia.org/resource/324695","lat":"52.5071","lng":"13.3212","label":"East"},{"s":"http://tour-pedia.org/resource/324699","lat":"52.5074","lng":"13.3214","label":"Café Savigny"},{"s":"http://tour-pedia.org/resource/324713","lat":"52.5075","lng":"13.3213","label":"Jazzcafé"},{"s":"http://tour-pedia.org/resource/324732","lat":"52.5053","lng":"13.3214","label":"La Piazza"},{"s":"http://tour-pedia.org/resource/215543","lat":"52.4974","lng":"13.287","label":"Romantik Hotel Kronprinz Berlin"},{"s":"http://tour-pedia.org/resource/215547","lat":"52.4983","lng":"13.296","label":"Ku'Damm 101 Hotel"},{"s":"http://tour-pedia.org/resource/215558","lat":"52.5136","lng":"13.3051","label":"Smart Stay Hotel Berlin City"},{"s":"http://tour-pedia.org/resource/215559","lat":"52.4989","lng":"13.3092","label":"Hotel Quentin Berlin am Kurfürstendamm"},{"s":"http://tour-pedia.org/resource/220926","lat":"52.5261","lng":"13.3038","label":"Zafirah Lounge"},{"s":"http://tour-pedia.org/resource/220930","lat":"52.5065","lng":"13.2962","label":"Mylos"},{"s":"http://tour-pedia.org/resource/220931","lat":"52.4989","lng":"13.2964","label":"Cumulus Kneipe"},{"s":"http://tour-pedia.org/resource/220981","lat":"52.508","lng":"13.3021","label":"zikos grill"},{"s":"http://tour-pedia.org/resource/220982","lat":"52.4988","lng":"13.3021","label":"Universum Lounge"},{"s":"http://tour-pedia.org/resource/220996","lat":"52.507","lng":"13.3174","label":"Ku De Ta - Lounge"},{"s":"http://tour-pedia.org/resource/220997","lat":"52.5079","lng":"13.3181","label":"Pascarella"},{"s":"http://tour-pedia.org/resource/220998","lat":"52.5054","lng":"13.3177","label":"Zeitlos"},{"s":"http://tour-pedia.org/resource/223272","lat":"52.5115","lng":"13.3149","label":"bbw Hochschule"},{"s":"http://tour-pedia.org/resource/480851","lat":"52.4991","lng":"13.2892","label":"Dr. med. Tina Alexander"},{"s":"http://tour-pedia.org/resource/480865","lat":"52.504","lng":"13.2954","label":"Grunenberg Hörgeräte"},{"s":"http://tour-pedia.org/resource/480930","lat":"52.495","lng":"13.2881","label":"Massage-Berlin, Energiearbeit & Channeling"},{"s":"http://tour-pedia.org/resource/480951","lat":"52.4968","lng":"13.2915","label":"Tanzschule Traumtänzer Kurfürstendamm"},{"s":"http://tour-pedia.org/resource/480956","lat":"52.4963","lng":"13.2933","label":"Quast AMQ (R) Markus G. C. Zahnarzt"},{"s":"http://tour-pedia.org/resource/480977","lat":"52.4976","lng":"13.2958","label":"Herr Dr.med.Reinhold Eichhorn"},{"s":"http://tour-pedia.org/resource/480978","lat":"52.4976","lng":"13.2958","label":"Kobligk Jolanta"},{"s":"http://tour-pedia.org/resource/480980","lat":"52.4976","lng":"13.2958","label":"Dr. Peter Kühne"},{"s":"http://tour-pedia.org/resource/480986","lat":"52.4977","lng":"13.2957","label":"Dr. Uta Stiegler"},{"s":"http://tour-pedia.org/resource/480993","lat":"52.4976","lng":"13.2958","label":"Arztbesuche Berlin"},{"s":"http://tour-pedia.org/resource/481172","lat":"52.5023","lng":"13.3035","label":"Dr. Burkhard Schlich und Dr. Kai Schorn"},{"s":"http://tour-pedia.org/resource/481173","lat":"52.5015","lng":"13.3003","label":"Gao-Nah-Thaimassage"},{"s":"http://tour-pedia.org/resource/481187","lat":"52.5034","lng":"13.3084","label":"Schwulen Beratung"},{"s":"http://tour-pedia.org/resource/481190","lat":"52.503","lng":"13.3088","label":"Reinert Christian"},{"s":"http://tour-pedia.org/resource/481191","lat":"52.5028","lng":"13.3077","label":"Mommsen Apotheke"},{"s":"http://tour-pedia.org/resource/481196","lat":"52.5021","lng":"13.308","label":"Yoga & More"},{"s":"http://tour-pedia.org/resource/481233","lat":"52.4997","lng":"13.3027","label":"Aesthetische Chirurgie Dr. Mark Wolter Berlin"},{"s":"http://tour-pedia.org/resource/481255","lat":"52.5007","lng":"13.3105","label":"Ku64"},{"s":"http://tour-pedia.org/resource/481256","lat":"52.5006","lng":"13.3102","label":"Dr. med. Reinhard Pettker"},{"s":"http://tour-pedia.org/resource/481257","lat":"52.5007","lng":"13.3076","label":"Apotheke Am Adenauerplatz"},{"s":"http://tour-pedia.org/resource/481261","lat":"52.5013","lng":"13.3105","label":"Kowalski, Günther & Johannes, Dr."},{"s":"http://tour-pedia.org/resource/481263","lat":"52.5004","lng":"13.3077","label":"Mulch Günther Prof. Dr. med."},{"s":"http://tour-pedia.org/resource/481268","lat":"52.5014","lng":"13.3093","label":"Dr. Sabine Schmidt"},{"s":"http://tour-pedia.org/resource/481271","lat":"52.5007","lng":"13.3105","label":"Mario Müller (KU64)"},{"s":"http://tour-pedia.org/resource/481273","lat":"52.5002","lng":"13.3066","label":"Brillant Apotheke"},{"s":"http://tour-pedia.org/resource/481276","lat":"52.5007","lng":"13.3105","label":"Dr. Dr. Thorsten Wegner (KU64)"},{"s":"http://tour-pedia.org/resource/481280","lat":"52.4993","lng":"13.3075","label":"Ambulante Pflegestation Atlanta GbR"},{"s":"http://tour-pedia.org/resource/481311","lat":"52.5016","lng":"13.3111","label":"Ole Georg Munkvold"},{"s":"http://tour-pedia.org/resource/481312","lat":"52.5024","lng":"13.3127","label":"Zahnärzte Leibnizstraße"},{"s":"http://tour-pedia.org/resource/481313","lat":"52.5016","lng":"13.3134","label":"Dr. med. dent. Stephan Kuhlow"},{"s":"http://tour-pedia.org/resource/481359","lat":"52.502","lng":"13.3166","label":"Dr. med. Hubert Klauser"},{"s":"http://tour-pedia.org/resource/481361","lat":"52.5035","lng":"13.3174","label":"Brillant Augenoptik GmbH"},{"s":"http://tour-pedia.org/resource/481367","lat":"52.5022","lng":"13.3172","label":"Zahnärztin Gabriele Förster"},{"s":"http://tour-pedia.org/resource/481387","lat":"52.5034","lng":"13.3192","label":"Caren Giese"},{"s":"http://tour-pedia.org/resource/481397","lat":"52.5004","lng":"13.3135","label":"Frauenärztin Uta Pätzig"},{"s":"http://tour-pedia.org/resource/481398","lat":"52.5013","lng":"13.3129","label":"Sanitätshaus Seeger hilft GmbH & Co. KG"},{"s":"http://tour-pedia.org/resource/481399","lat":"52.4993","lng":"13.3106","label":"Zahnarzt-Praxis Barbara Elsholtz"},{"s":"http://tour-pedia.org/resource/481401","lat":"52.5013","lng":"13.3129","label":"Chimanos - Medizinisches Versorgungszentrum"},{"s":"http://tour-pedia.org/resource/481415","lat":"52.5005","lng":"13.314","label":"Thomas Schmitt"},{"s":"http://tour-pedia.org/resource/481420","lat":"52.5004","lng":"13.3135","label":"Dr.med. Christian A. Leinhos"},{"s":"http://tour-pedia.org/resource/481421","lat":"52.4997","lng":"13.3123","label":"Dr. med. Ulrich Sinning"},{"s":"http://tour-pedia.org/resource/481463","lat":"52.5004","lng":"13.3194","label":"Dr. med. Stefan Henning"},{"s":"http://tour-pedia.org/resource/481497","lat":"52.4985","lng":"13.3071","label":"Brandenburg Apotheke"},{"s":"http://tour-pedia.org/resource/481500","lat":"52.4986","lng":"13.3056","label":"Tanzschule Step bei Step"},{"s":"http://tour-pedia.org/resource/481504","lat":"52.497","lng":"13.3098","label":"Agentur Heiraten-leicht-gemacht"},{"s":"http://tour-pedia.org/resource/481535","lat":"52.4987","lng":"13.3157","label":"BellaVital"},{"s":"http://tour-pedia.org/resource/481536","lat":"52.4984","lng":"13.3142","label":"Kewley Marlies Kosmetik"},{"s":"http://tour-pedia.org/resource/481537","lat":"52.4974","lng":"13.3119","label":"Pan-Thai Thaimassage"},{"s":"http://tour-pedia.org/resource/481538","lat":"52.4962","lng":"13.3114","label":"Zahnarztpraxis Dr. Frohloff"},{"s":"http://tour-pedia.org/resource/481542","lat":"52.498","lng":"13.3123","label":"Prof. Dr. Eichstädt"},{"s":"http://tour-pedia.org/resource/481569","lat":"52.4985","lng":"13.3177","label":"Saint Charles Apotheke"},{"s":"http://tour-pedia.org/resource/481572","lat":"52.4976","lng":"13.3173","label":"Naturheilpraxis Launhardt"},{"s":"http://tour-pedia.org/resource/481574","lat":"52.4985","lng":"13.3167","label":"Dr. med. Annegret Schultze"},{"s":"http://tour-pedia.org/resource/482106","lat":"52.4904","lng":"13.3212","label":"Reiki Heilpraxis Inh. Katharina W. Urbschat"},{"s":"http://tour-pedia.org/resource/482175","lat":"52.4868","lng":"13.3215","label":"Zahnarzt Berlin Wilmersdorf : Aviva Grinfeld"},{"s":"http://tour-pedia.org/resource/482186","lat":"52.4842","lng":"13.3199","label":"Optiker Schäfers Söhne KG"},{"s":"http://tour-pedia.org/resource/482187","lat":"52.4866","lng":"13.3214","label":"Dimroth Hans Dr. Arzt für Inneres"},{"s":"http://tour-pedia.org/resource/472973","lat":"52.5248","lng":"13.3045","label":"Hahne Michael Zahnarztpraxis"},{"s":"http://tour-pedia.org/resource/473301","lat":"52.5198","lng":"13.2992","label":"Claudia Savaser"},{"s":"http://tour-pedia.org/resource/473303","lat":"52.5192","lng":"13.3004","label":"Apotheke am Schloss"},{"s":"http://tour-pedia.org/resource/473311","lat":"52.5191","lng":"13.3006","label":"Dr. med. Holger Bandmann"},{"s":"http://tour-pedia.org/resource/473319","lat":"52.5177","lng":"13.3002","label":"Ide Stefan Heilpraktiker"},{"s":"http://tour-pedia.org/resource/473416","lat":"52.5101","lng":"13.2801","label":"Optiker Wittig GmbH"},{"s":"http://tour-pedia.org/resource/473495","lat":"52.5101","lng":"13.2813","label":"Husak Ralf Dr. med."},{"s":"http://tour-pedia.org/resource/473502","lat":"52.5098","lng":"13.281","label":"Ruay Thai Massage"},{"s":"http://tour-pedia.org/resource/473508","lat":"52.5103","lng":"13.2844","label":"Naturheilpraxis Ute Grempel"},{"s":"http://tour-pedia.org/resource/473513","lat":"52.5116","lng":"13.2824","label":"Lothar Schnieke"},{"s":"http://tour-pedia.org/resource/473514","lat":"52.5106","lng":"13.2835","label":"Hirschfelder Katharina"},{"s":"http://tour-pedia.org/resource/473547","lat":"52.5107","lng":"13.2967","label":"SEHWERK Augenoptik"},{"s":"http://tour-pedia.org/resource/473558","lat":"52.51","lng":"13.2946","label":"Neumann-Strätz Christian Dr. med."},{"s":"http://tour-pedia.org/resource/473566","lat":"52.5119","lng":"13.2975","label":"Peter Green Friseure & Kosmetik"},{"s":"http://tour-pedia.org/resource/473573","lat":"52.5095","lng":"13.2985","label":"Dr. med. Jan Grundmann"},{"s":"http://tour-pedia.org/resource/473578","lat":"52.5131","lng":"13.2977","label":"Coiffeur Capilli & Permanent Make-Up"},{"s":"http://tour-pedia.org/resource/473599","lat":"52.5117","lng":"13.2944","label":"Ambulanter Pflegedienst Sante'"},{"s":"http://tour-pedia.org/resource/473620","lat":"52.5061","lng":"13.2836","label":"Centro Delfino - Akademie"},{"s":"http://tour-pedia.org/resource/473660","lat":"52.5086","lng":"13.2982","label":"Peter Kamieniarz"},{"s":"http://tour-pedia.org/resource/473661","lat":"52.5073","lng":"13.2987","label":"physio 12"},{"s":"http://tour-pedia.org/resource/473682","lat":"52.5053","lng":"13.2995","label":"Dr. Galwelat cimdata GmbH"},{"s":"http://tour-pedia.org/resource/473684","lat":"52.507","lng":"13.2985","label":"Kraffel Uwe Dr. med."},{"s":"http://tour-pedia.org/resource/473719","lat":"52.5236","lng":"13.308","label":"Grone Schule Berlin GmbH"},{"s":"http://tour-pedia.org/resource/473733","lat":"52.5157","lng":"13.3026","label":"Coiffeur Lavida"},{"s":"http://tour-pedia.org/resource/473734","lat":"52.5174","lng":"13.3074","label":"Müller Brillen & Contactlinsen"},{"s":"http://tour-pedia.org/resource/473735","lat":"52.5164","lng":"13.309","label":"Hof Apotheke"},{"s":"http://tour-pedia.org/resource/473740","lat":"52.5167","lng":"13.3098","label":"Markus Schramm"},{"s":"http://tour-pedia.org/resource/473742","lat":"52.5168","lng":"13.3075","label":"Frau Dr. Andrea Schellnack-Ipoumb"},{"s":"http://tour-pedia.org/resource/473749","lat":"52.5165","lng":"13.3049","label":"Krause Junior Parfümerie"},{"s":"http://tour-pedia.org/resource/473759","lat":"52.5154","lng":"13.3064","label":"Pflegedienst DAKOS GbR"},{"s":"http://tour-pedia.org/resource/473810","lat":"52.5175","lng":"13.3183","label":"Hausarztpraxis Dres. Hecker"},{"s":"http://tour-pedia.org/resource/473951","lat":"52.513","lng":"13.3022","label":"Paartherapie Berlin-Charlottenburg"},{"s":"http://tour-pedia.org/resource/473960","lat":"52.5142","lng":"13.3066","label":"Garnek Chanan Tierarztpraxis"},{"s":"http://tour-pedia.org/resource/473961","lat":"52.5134","lng":"13.3056","label":"Yoga bei Antje + Maxim"},{"s":"http://tour-pedia.org/resource/473971","lat":"52.512","lng":"13.3053","label":"Augenoptik Guntram Schäfers"},{"s":"http://tour-pedia.org/resource/473974","lat":"52.511","lng":"13.302","label":"Zahnarzt Dr. Rüdiger Radtke"},{"s":"http://tour-pedia.org/resource/473995","lat":"52.5111","lng":"13.3096","label":"Dr. med. Martin Thomas Schäfer"},{"s":"http://tour-pedia.org/resource/473996","lat":"52.5111","lng":"13.3096","label":"LifeCoaching-Berlin"},{"s":"http://tour-pedia.org/resource/473997","lat":"52.5104","lng":"13.3071","label":"Yoga und Naturheilpraxis"},{"s":"http://tour-pedia.org/resource/473998","lat":"52.5121","lng":"13.3104","label":"Opernviertel-Apotheke"},{"s":"http://tour-pedia.org/resource/474020","lat":"52.5131","lng":"13.3141","label":"Wuli-Schule Berlin Charlottenburg"},{"s":"http://tour-pedia.org/resource/474023","lat":"52.5092","lng":"13.3131","label":"Eichendorff-Grundschule"},{"s":"http://tour-pedia.org/resource/474025","lat":"52.5094","lng":"13.3097","label":"Ben Rahal Suhara Zertifizierte Yoga-Lehrerin"},{"s":"http://tour-pedia.org/resource/474027","lat":"52.512","lng":"13.3123","label":"Anke Rosenthal"},{"s":"http://tour-pedia.org/resource/474028","lat":"52.5117","lng":"13.3115","label":"Prana Yogaschule Anna Trökes"},{"s":"http://tour-pedia.org/resource/474029","lat":"52.5092","lng":"13.3151","label":"Paartherapie Charlottenburg"},{"s":"http://tour-pedia.org/resource/474031","lat":"52.5126","lng":"13.3121","label":"Siddiqyar Naseem Dr. med."},{"s":"http://tour-pedia.org/resource/474033","lat":"52.5131","lng":"13.3141","label":"Taiji School"},{"s":"http://tour-pedia.org/resource/474043","lat":"52.5117","lng":"13.3115","label":"Herr Dr. med. Günter Niessen"},{"s":"http://tour-pedia.org/resource/474045","lat":"52.5101","lng":"13.3138","label":"Azadeh-Bauchtanz Berlin-Katharina Joumana"},{"s":"http://tour-pedia.org/resource/474046","lat":"52.5122","lng":"13.3124","label":"Bias Andreas Facharzt für Innere Medizin"},{"s":"http://tour-pedia.org/resource/474063","lat":"52.5126","lng":"13.3121","label":"Dr. Ursula Weise"},{"s":"http://tour-pedia.org/resource/474086","lat":"52.5095","lng":"13.3054","label":"Bong Apotheke"},{"s":"http://tour-pedia.org/resource/474090","lat":"52.5081","lng":"13.3039","label":"Illham Sultanov"},{"s":"http://tour-pedia.org/resource/474108","lat":"52.5086","lng":"13.3063","label":"Fielmann Berlin Charlottenburg"},{"s":"http://tour-pedia.org/resource/474110","lat":"52.5071","lng":"13.3063","label":"Frau Dr. med. Gabriele Berhold"},{"s":"http://tour-pedia.org/resource/474111","lat":"52.5076","lng":"13.3102","label":"Kopfzeit"},{"s":"http://tour-pedia.org/resource/474112","lat":"52.5075","lng":"13.3061","label":"Steinke-Institut"},{"s":"http://tour-pedia.org/resource/474116","lat":"52.5078","lng":"13.3074","label":"Ivona Naumann"},{"s":"http://tour-pedia.org/resource/474118","lat":"52.5089","lng":"13.3055","label":"Apollo-Optik GmbH"},{"s":"http://tour-pedia.org/resource/474126","lat":"52.5093","lng":"13.3059","label":"iberika Sprachschule in Berlin & weltweit"},{"s":"http://tour-pedia.org/resource/474127","lat":"52.5093","lng":"13.3059","label":"Drescher Testberatung"},{"s":"http://tour-pedia.org/resource/474129","lat":"52.5075","lng":"13.3062","label":"MAS-Dental"},{"s":"http://tour-pedia.org/resource/474130","lat":"52.5096","lng":"13.3067","label":"Herr Gholamreza Goudarzi"},{"s":"http://tour-pedia.org/resource/474150","lat":"52.5064","lng":"13.3049","label":"Stern-Apotheke"},{"s":"http://tour-pedia.org/resource/474157","lat":"52.5059","lng":"13.3065","label":"Centrodental - Die Zahnärzte in Berlin"},{"s":"http://tour-pedia.org/resource/474159","lat":"52.5058","lng":"13.3061","label":"Dr. med. Joachim Felderhoff"},{"s":"http://tour-pedia.org/resource/474160","lat":"52.5058","lng":"13.3065","label":"Dr. Stephan Beckmann"},{"s":"http://tour-pedia.org/resource/474161","lat":"52.5058","lng":"13.3061","label":"Endokrinologiepraxis am Stuttgarter Platz"},{"s":"http://tour-pedia.org/resource/474164","lat":"52.5069","lng":"13.3064","label":"Apotheke 62"},{"s":"http://tour-pedia.org/resource/474165","lat":"52.5069","lng":"13.3083","label":"Mannl Oliver Dr. Zahnarzt"},{"s":"http://tour-pedia.org/resource/474166","lat":"52.5059","lng":"13.3065","label":"meviva MVZ"},{"s":"http://tour-pedia.org/resource/474167","lat":"52.5058","lng":"13.3061","label":"Dr. Nazanin-Bakhtari"},{"s":"http://tour-pedia.org/resource/474173","lat":"52.5059","lng":"13.3065","label":"Dr. Christoph Ehlers"},{"s":"http://tour-pedia.org/resource/474195","lat":"52.5087","lng":"13.3141","label":"Brillen Chic Worch"},{"s":"http://tour-pedia.org/resource/474196","lat":"52.5075","lng":"13.3113","label":"Lernen in Bewegung e.V. -Yoga-berlin.de"},{"s":"http://tour-pedia.org/resource/474208","lat":"52.5076","lng":"13.3163","label":"Lichtenberg-Kolleg e.V."},{"s":"http://tour-pedia.org/resource/474222","lat":"52.5068","lng":"13.3119","label":"Deutsche Post Filiale"},{"s":"http://tour-pedia.org/resource/474223","lat":"52.5067","lng":"13.3142","label":"Friseure Hands4Hair"},{"s":"http://tour-pedia.org/resource/474225","lat":"52.5064","lng":"13.3157","label":"HAHDAO SPA"},{"s":"http://tour-pedia.org/resource/474226","lat":"52.5061","lng":"13.3136","label":"Leibniz Apotheke"},{"s":"http://tour-pedia.org/resource/474227","lat":"52.5067","lng":"13.3138","label":"Herr Dirk Lohr"},{"s":"http://tour-pedia.org/resource/474246","lat":"52.5055","lng":"13.3199","label":"Augenoptik Bleibtreustraße GmbH"},{"s":"http://tour-pedia.org/resource/474249","lat":"52.5062","lng":"13.3187","label":"Wolfgang Riedle"},{"s":"http://tour-pedia.org/resource/474250","lat":"52.506","lng":"13.3162","label":"Werling Raymund Facharzt für Orthopädie"},{"s":"http://tour-pedia.org/resource/474257","lat":"52.5062","lng":"13.3181","label":"Schlüter Apotheke"},{"s":"http://tour-pedia.org/resource/480241","lat":"52.4887","lng":"13.2617","label":"Berlin-Grunewald"},{"s":"http://tour-pedia.org/resource/233210","lat":"52.5018","lng":"13.3189","label":"Hotel Mondial"},{"s":"http://tour-pedia.org/resource/233225","lat":"52.5009","lng":"13.3201","label":"Hotel Pension Kurfürst, Berlin"},{"s":"http://tour-pedia.org/resource/233228","lat":"52.4951","lng":"13.31","label":"Hotel Wittelsbach am Kurfürstendamm"},{"s":"http://tour-pedia.org/resource/233240","lat":"52.5004","lng":"13.3151","label":"Hotel Pension Kima"},{"s":"http://tour-pedia.org/resource/233243","lat":"52.5101","lng":"13.2801","label":"Hotel Amelie Messe ICC"},{"s":"http://tour-pedia.org/resource/233376","lat":"52.5088","lng":"13.309","label":"art'appart suiten"},{"s":"http://tour-pedia.org/resource/233403","lat":"52.5055","lng":"13.3156","label":"EnergieHotel Berlin City West"},{"s":"http://tour-pedia.org/resource/233425","lat":"52.5053","lng":"13.3017","label":"ART-HOTEL CHARLOTTENBURGER HOF"},{"s":"http://tour-pedia.org/resource/233427","lat":"52.5002","lng":"13.3194","label":"Bleibtreu Berlin"},{"s":"http://tour-pedia.org/resource/233432","lat":"52.5234","lng":"13.3062","label":"ECONTEL HOTEL Berlin Charlottenburg"},{"s":"http://tour-pedia.org/resource/233434","lat":"52.4984","lng":"13.3171","label":"Hotel Alexander"},{"s":"http://tour-pedia.org/resource/233435","lat":"52.4981","lng":"13.3178","label":"Hotel AUSTRIANA"},{"s":"http://tour-pedia.org/resource/233438","lat":"52.5022","lng":"13.3128","label":"Apartments-Maison Am Olivaer Platz"},{"s":"http://tour-pedia.org/resource/233444","lat":"52.506","lng":"13.3022","label":"Hotel ADAM"},{"s":"http://tour-pedia.org/resource/233453","lat":"52.5122","lng":"13.3049","label":"GOODMAN'S LIVING"},{"s":"http://tour-pedia.org/resource/233469","lat":"52.5086","lng":"13.3022","label":"Hotel Pension Arta"},{"s":"http://tour-pedia.org/resource/233472","lat":"52.5024","lng":"13.3135","label":"Hotel Alte Galerie am Kudamm"},{"s":"http://tour-pedia.org/resource/233474","lat":"52.5051","lng":"13.3009","label":"Happy go Lucky Hotel + Hostel"},{"s":"http://tour-pedia.org/resource/233496","lat":"52.506","lng":"13.3072","label":"Media Markt"},{"s":"http://tour-pedia.org/resource/233512","lat":"52.4947","lng":"13.3092","label":"Artemisia Berlin Frauenhotel"},{"s":"http://tour-pedia.org/resource/233516","lat":"52.5042","lng":"13.3183","label":"City Pension Al Vita"},{"s":"http://tour-pedia.org/resource/233519","lat":"52.5032","lng":"13.3123","label":"Pension Majesty"},{"s":"http://tour-pedia.org/resource/233594","lat":"52.4962","lng":"13.3202","label":"Hotel Bellevue Am Kurfürstendamm"},{"s":"http://tour-pedia.org/resource/234254","lat":"52.505","lng":"13.2994","label":"Gasthaus Lentz"},{"s":"http://tour-pedia.org/resource/234257","lat":"52.499","lng":"13.3031","label":"China Liangtse Group Berlin GmbH"},{"s":"http://tour-pedia.org/resource/234264","lat":"52.5069","lng":"13.2995","label":"Berlin Minbak"},{"s":"http://tour-pedia.org/resource/234302","lat":"52.5025","lng":"13.3163","label":"Set's"},{"s":"http://tour-pedia.org/resource/234306","lat":"52.4978","lng":"13.3131","label":"Hotel"},{"s":"http://tour-pedia.org/resource/234307","lat":"52.5022","lng":"13.3194","label":"Astrid am Kurfürstendamm"},{"s":"http://tour-pedia.org/resource/328218","lat":"52.4992","lng":"13.3004","label":"Zum Seidel-Wirt"},{"s":"http://tour-pedia.org/resource/328219","lat":"52.5008","lng":"13.2968","label":"Vanille & Co."},{"s":"http://tour-pedia.org/resource/328220","lat":"52.4981","lng":"13.2998","label":"Liquor Store UG (haftungsbeschränkt)"},{"s":"http://tour-pedia.org/resource/328221","lat":"52.5018","lng":"13.3004","label":"Babis Ouzeri"},{"s":"http://tour-pedia.org/resource/328235","lat":"52.5001","lng":"13.2988","label":"Good Rice"},{"s":"http://tour-pedia.org/resource/328236","lat":"52.5011","lng":"13.2983","label":"Der kleine Hofladen"},{"s":"http://tour-pedia.org/resource/328240","lat":"52.4982","lng":"13.3003","label":"La Rustica"},{"s":"http://tour-pedia.org/resource/328262","lat":"52.4956","lng":"13.2869","label":"Wolf's Inn"},{"s":"http://tour-pedia.org/resource/328276","lat":"52.4975","lng":"13.291","label":"Eisgrün Eiscafé"},{"s":"http://tour-pedia.org/resource/328283","lat":"52.4968","lng":"13.2915","label":"Eiskaffee Henriette"},{"s":"http://tour-pedia.org/resource/328305","lat":"52.4886","lng":"13.3015","label":"Conditorei Jebens GbR"},{"s":"http://tour-pedia.org/resource/328306","lat":"52.4877","lng":"13.2997","label":"Spar-Markt Berger"},{"s":"http://tour-pedia.org/resource/328314","lat":"52.4879","lng":"13.2993","label":"Trattoria Il Gusto Italiano Pizzeria"},{"s":"http://tour-pedia.org/resource/328326","lat":"52.5022","lng":"13.3049","label":"Cocktailbar Carlitos"},{"s":"http://tour-pedia.org/resource/328327","lat":"52.5037","lng":"13.3049","label":"Ristorante San Giorgio"},{"s":"http://tour-pedia.org/resource/328328","lat":"52.5022","lng":"13.3041","label":"Sharazad Lounge Berlin"},{"s":"http://tour-pedia.org/resource/328330","lat":"52.5023","lng":"13.3037","label":"Café Pause"},{"s":"http://tour-pedia.org/resource/328336","lat":"52.5018","lng":"13.3105","label":"Irish Harp Pub"},{"s":"http://tour-pedia.org/resource/328337","lat":"52.5034","lng":"13.3055","label":"MIMINO"},{"s":"http://tour-pedia.org/resource/328338","lat":"52.5034","lng":"13.3082","label":"Mommsen-Eck"},{"s":"http://tour-pedia.org/resource/328339","lat":"52.5029","lng":"13.3076","label":"Cheers"},{"s":"http://tour-pedia.org/resource/328340","lat":"52.5026","lng":"13.3087","label":"Ristorante TRE"},{"s":"http://tour-pedia.org/resource/328360","lat":"52.4994","lng":"13.3051","label":"Balthazar"},{"s":"http://tour-pedia.org/resource/328361","lat":"52.4997","lng":"13.3027","label":"Kidsplanet"},{"s":"http://tour-pedia.org/resource/328362","lat":"52.4999","lng":"13.3051","label":"Peking"},{"s":"http://tour-pedia.org/resource/328373","lat":"52.4997","lng":"13.3067","label":"Block House Am Adenauerplatz"},{"s":"http://tour-pedia.org/resource/328374","lat":"52.5006","lng":"13.3104","label":"Zeitlos"},{"s":"http://tour-pedia.org/resource/328375","lat":"52.4992","lng":"13.3057","label":"Chinesisches Restaurant Hot Spot"},{"s":"http://tour-pedia.org/resource/328376","lat":"52.5006","lng":"13.3094","label":"King's Teagarden 25+ GmbH"},{"s":"http://tour-pedia.org/resource/328377","lat":"52.5006","lng":"13.3101","label":"Kori & Fay Restaurant"},{"s":"http://tour-pedia.org/resource/328382","lat":"52.5005","lng":"13.3096","label":"Soupkultur"},{"s":"http://tour-pedia.org/resource/328383","lat":"52.4993","lng":"13.3075","label":"Genenz Harry Konditorei und Café"},{"s":"http://tour-pedia.org/resource/328384","lat":"52.4998","lng":"13.3071","label":"McDonald's Restaurant"},{"s":"http://tour-pedia.org/resource/328385","lat":"52.4999","lng":"13.3083","label":"Rossmann Filiale"},{"s":"http://tour-pedia.org/resource/328386","lat":"52.5011","lng":"13.3069","label":"Edeka Inh. Monika Schiwik"},{"s":"http://tour-pedia.org/resource/328387","lat":"52.5","lng":"13.3091","label":"Art & Champagne"},{"s":"http://tour-pedia.org/resource/328390","lat":"52.4989","lng":"13.3077","label":"Restaurant & Bierhaus Xantener Eck Berlin"},{"s":"http://tour-pedia.org/resource/328397","lat":"52.5013","lng":"13.3078","label":"Schober's Eisdiele"},{"s":"http://tour-pedia.org/resource/328398","lat":"52.4996","lng":"13.3063","label":"Palm Beach"},{"s":"http://tour-pedia.org/resource/328405","lat":"52.5021","lng":"13.3131","label":"Klo"},{"s":"http://tour-pedia.org/resource/328406","lat":"52.5022","lng":"13.3149","label":"Enoiteca IL Calice"},{"s":"http://tour-pedia.org/resource/328407","lat":"52.5017","lng":"13.3132","label":"Samos, griechisches Restaurant"},{"s":"http://tour-pedia.org/resource/328408","lat":"52.5037","lng":"13.3133","label":"TuBi"},{"s":"http://tour-pedia.org/resource/328410","lat":"52.504","lng":"13.3157","label":"NOX Entertainment UG (haftungsbeschränkt)"},{"s":"http://tour-pedia.org/resource/328412","lat":"52.5028","lng":"13.3132","label":"Cafe Einstein"},{"s":"http://tour-pedia.org/resource/328414","lat":"52.5042","lng":"13.3157","label":"Akropolis Taverna"},{"s":"http://tour-pedia.org/resource/328431","lat":"52.5033","lng":"13.3178","label":"Marjellchen"},{"s":"http://tour-pedia.org/resource/328432","lat":"52.5034","lng":"13.3192","label":"La Cantina"},{"s":"http://tour-pedia.org/resource/328433","lat":"52.5034","lng":"13.3192","label":"Calcutta"},{"s":"http://tour-pedia.org/resource/328434","lat":"52.5021","lng":"13.3172","label":"Ovest"},{"s":"http://tour-pedia.org/resource/328435","lat":"52.5035","lng":"13.3169","label":"Sake Sushi Bar"},{"s":"http://tour-pedia.org/resource/328436","lat":"52.5039","lng":"13.317","label":"Cafe & Bistro Cali Bocca"},{"s":"http://tour-pedia.org/resource/328441","lat":"52.5036","lng":"13.3196","label":"Chokocafè"},{"s":"http://tour-pedia.org/resource/328444","lat":"52.5032","lng":"13.3202","label":"Reste Fidèle"},{"s":"http://tour-pedia.org/resource/328456","lat":"52.4999","lng":"13.3138","label":"Pirate Pizza Berlin GmbH"},{"s":"http://tour-pedia.org/resource/328457","lat":"52.5002","lng":"13.3151","label":"La Caleta"},{"s":"http://tour-pedia.org/resource/328458","lat":"52.4991","lng":"13.3122","label":"Qba"},{"s":"http://tour-pedia.org/resource/328459","lat":"52.4988","lng":"13.3153","label":"Sushi ttp"},{"s":"http://tour-pedia.org/resource/328460","lat":"52.5002","lng":"13.3118","label":"Subway Böhnke und Christeinicke GbR"},{"s":"http://tour-pedia.org/resource/328461","lat":"52.4999","lng":"13.3138","label":"Paramount Restaurant Brasserie"},{"s":"http://tour-pedia.org/resource/328462","lat":"52.4994","lng":"13.3125","label":"Olive 18 Restaurant Café"},{"s":"http://tour-pedia.org/resource/328464","lat":"52.499","lng":"13.3141","label":"Amantes Fashion Bar"},{"s":"http://tour-pedia.org/resource/328465","lat":"52.4987","lng":"13.3135","label":"La Vigna"},{"s":"http://tour-pedia.org/resource/328467","lat":"52.499","lng":"13.3132","label":"Pasta Nova"},{"s":"http://tour-pedia.org/resource/328470","lat":"52.4991","lng":"13.3109","label":"italienische Trattoria-Pizzeria"},{"s":"http://tour-pedia.org/resource/328471","lat":"52.4988","lng":"13.3153","label":"Xuan Thanh Quach"},{"s":"http://tour-pedia.org/resource/328480","lat":"52.5002","lng":"13.3194","label":"Deli 31"},{"s":"http://tour-pedia.org/resource/328481","lat":"52.4996","lng":"13.3201","label":"LAGE 93 Weinbar und Restaurant"},{"s":"http://tour-pedia.org/resource/328482","lat":"52.4998","lng":"13.3196","label":"Pizzeria Via Veneto"},{"s":"http://tour-pedia.org/resource/328486","lat":"52.501","lng":"13.3172","label":"Wellenstein"},{"s":"http://tour-pedia.org/resource/328498","lat":"52.4987","lng":"13.3076","label":"Tokyohaus"},{"s":"http://tour-pedia.org/resource/328511","lat":"52.4985","lng":"13.319","label":"Cyclo"},{"s":"http://tour-pedia.org/resource/328512","lat":"52.4973","lng":"13.3204","label":"Sushi Em"},{"s":"http://tour-pedia.org/resource/328513","lat":"52.4986","lng":"13.3183","label":"Cafè Solo"},{"s":"http://tour-pedia.org/resource/328514","lat":"52.4971","lng":"13.314","label":"Niko´s Restaurant"},{"s":"http://tour-pedia.org/resource/328515","lat":"52.4982","lng":"13.3193","label":"Okeh"},{"s":"http://tour-pedia.org/resource/328516","lat":"52.4971","lng":"13.3203","label":"Hermanns Einkehr"},{"s":"http://tour-pedia.org/resource/328517","lat":"52.498","lng":"13.3185","label":"Jimmy's Diner"},{"s":"http://tour-pedia.org/resource/328518","lat":"52.4981","lng":"13.3179","label":"Oshima Sushi"},{"s":"http://tour-pedia.org/resource/328521","lat":"52.498","lng":"13.3189","label":"Pizza Factory Pizzeria"},{"s":"http://tour-pedia.org/resource/328523","lat":"52.497","lng":"13.3129","label":"Gusto Italienische Spezialitäten"},{"s":"http://tour-pedia.org/resource/328525","lat":"52.4975","lng":"13.3184","label":"Markus Semmler Das Restaurant"},{"s":"http://tour-pedia.org/resource/328526","lat":"52.4957","lng":"13.3212","label":"Wilmersdorfer Fass Gaststätte"},{"s":"http://tour-pedia.org/resource/328528","lat":"52.4971","lng":"13.3203","label":"Menta"},{"s":"http://tour-pedia.org/resource/328529","lat":"52.4978","lng":"13.3117","label":"Restaurant Assala"},{"s":"http://tour-pedia.org/resource/328818","lat":"52.4849","lng":"13.3201","label":"Blisse 14"},{"s":"http://tour-pedia.org/resource/328820","lat":"52.485","lng":"13.3201","label":"Eiscafé Monheim"},{"s":"http://tour-pedia.org/resource/328830","lat":"52.4878","lng":"13.3205","label":"La Cenetta"},{"s":"http://tour-pedia.org/resource/328831","lat":"52.4862","lng":"13.3203","label":"Galeb"},{"s":"http://tour-pedia.org/resource/328833","lat":"52.4911","lng":"13.317","label":"NETTO Berlin- Willmersdorf"},{"s":"http://tour-pedia.org/resource/328841","lat":"52.4821","lng":"13.3202","label":"E aktiv markt Uwe Langkopf"},{"s":"http://tour-pedia.org/resource/328848","lat":"52.4895","lng":"13.3165","label":"Franco Service"},{"s":"http://tour-pedia.org/resource/91933","lat":"52.5016","lng":"13.3212","label":"Hollywood Media Hotel am Kurfürstendamm"},{"s":"http://tour-pedia.org/resource/91935","lat":"52.5102","lng":"13.2808","label":"Hotel Brandies"},{"s":"http://tour-pedia.org/resource/91939","lat":"52.5066","lng":"13.3059","label":"Best Western Hotel Kantstrasse Berlin"},{"s":"http://tour-pedia.org/resource/91942","lat":"52.4952","lng":"13.3103","label":"Hotel Wittelsbach"},{"s":"http://tour-pedia.org/resource/91956","lat":"52.5001","lng":"13.3196","label":"Hotel Bleibtreu"},{"s":"http://tour-pedia.org/resource/92044","lat":"52.5026","lng":"13.3087","label":"Juleps New York Bar & Restaurant"},{"s":"http://tour-pedia.org/resource/92059","lat":"52.5248","lng":"13.3041","label":"Café Carow"},{"s":"http://tour-pedia.org/resource/92062","lat":"52.5197","lng":"13.3146","label":"Restaurant \"Schnitzelei\""},{"s":"http://tour-pedia.org/resource/92078","lat":"52.5073","lng":"13.3213","label":"Florian"},{"s":"http://tour-pedia.org/resource/92124","lat":"52.4989","lng":"13.302","label":"Universum Lounge"},{"s":"http://tour-pedia.org/resource/92349","lat":"52.5174","lng":"13.3076","label":"Bürgeramt Charlottenburg"},{"s":"http://tour-pedia.org/resource/92405","lat":"52.503","lng":"13.3005","label":"Restaurant Charlottchen"},{"s":"http://tour-pedia.org/resource/92408","lat":"52.5051","lng":"13.2998","label":"Gasthaus Lentz"},{"s":"http://tour-pedia.org/resource/92416","lat":"52.5048","lng":"13.3201","label":"Zillemarkt"},{"s":"http://tour-pedia.org/resource/92428","lat":"52.5052","lng":"13.3202","label":"12 Apostel"},{"s":"http://tour-pedia.org/resource/92432","lat":"52.4992","lng":"13.3016","label":"Francucci's Ristorante"},{"s":"http://tour-pedia.org/resource/92458","lat":"52.5081","lng":"13.3173","label":"Sushi Mylan"},{"s":"http://tour-pedia.org/resource/92460","lat":"52.4986","lng":"13.3009","label":"Restaurant Brasil Brasileiro"},{"s":"http://tour-pedia.org/resource/92493","lat":"52.5073","lng":"13.3202","label":"A-Trane Jazzclub"},{"s":"http://tour-pedia.org/resource/92508","lat":"52.4989","lng":"13.3027","label":"Schaubühne am Lehniner Platz"},{"s":"http://tour-pedia.org/resource/92537","lat":"52.5044","lng":"13.3198","label":"filmkunst66"},{"s":"http://tour-pedia.org/resource/92541","lat":"52.5066","lng":"13.3085","label":"Neue Kant-Kinos"},{"s":"http://tour-pedia.org/resource/92595","lat":"52.5084","lng":"13.3102","label":"Wochenmarkt Karl-August-Platz (Mi. & Sa.)"},{"s":"http://tour-pedia.org/resource/92597","lat":"52.5052","lng":"13.3","label":"Salumeria Da Pino"},{"s":"http://tour-pedia.org/resource/92604","lat":"52.5045","lng":"13.2805","label":"ICC - Internationales Congress Centrum Berlin"},{"s":"http://tour-pedia.org/resource/92702","lat":"52.5052","lng":"13.3035","label":"S Charlottenburg Bhf (Berlin)"},{"s":"http://tour-pedia.org/resource/92729","lat":"52.5062","lng":"13.3178","label":"Good Friends"},{"s":"http://tour-pedia.org/resource/92792","lat":"52.5039","lng":"13.32","label":"Pizzeria Ali Baba"},{"s":"http://tour-pedia.org/resource/92817","lat":"52.4999","lng":"13.3051","label":"Pasta Deli"},{"s":"http://tour-pedia.org/resource/92825","lat":"52.5035","lng":"13.3079","label":"Mommsen Eck - Haus der 100 Biere"},{"s":"http://tour-pedia.org/resource/92834","lat":"52.4991","lng":"13.3165","label":"Mr. Hai Kabuki"},{"s":"http://tour-pedia.org/resource/92835","lat":"52.5023","lng":"13.317","label":"Set's"},{"s":"http://tour-pedia.org/resource/92854","lat":"52.4988","lng":"13.2984","label":"Restaurant Tugra"},{"s":"http://tour-pedia.org/resource/92856","lat":"52.4887","lng":"13.2619","label":"S Grunewald (Berlin)"},{"s":"http://tour-pedia.org/resource/92906","lat":"52.5051","lng":"13.3193","label":"Savignyplatz"},{"s":"http://tour-pedia.org/resource/92921","lat":"52.5066","lng":"13.306","label":"McDonald's Restaurant"},{"s":"http://tour-pedia.org/resource/92925","lat":"52.5061","lng":"13.3151","label":"Dao"},{"s":"http://tour-pedia.org/resource/92949","lat":"52.5012","lng":"13.283","label":"S Westkreuz (Berlin)"},{"s":"http://tour-pedia.org/resource/92969","lat":"52.4979","lng":"13.3197","label":"Route 66 Diner"},{"s":"http://tour-pedia.org/resource/92971","lat":"52.4913","lng":"13.3142","label":"Parkcafe"},{"s":"http://tour-pedia.org/resource/92978","lat":"52.5044","lng":"13.3072","label":"Saigon-Today"},{"s":"http://tour-pedia.org/resource/93055","lat":"52.4989","lng":"13.3153","label":"TTP Sushi"},{"s":"http://tour-pedia.org/resource/93080","lat":"52.48","lng":"13.312","label":"Heidelberger Platz"},{"s":"http://tour-pedia.org/resource/93100","lat":"52.5052","lng":"13.2993","label":"Pan degli Angeli"},{"s":"http://tour-pedia.org/resource/93122","lat":"52.5006","lng":"13.3106","label":"KU64 Zahnärzte"},{"s":"http://tour-pedia.org/resource/93129","lat":"52.5039","lng":"13.32","label":"Bleibtreu Cafe"},{"s":"http://tour-pedia.org/resource/93150","lat":"52.4887","lng":"13.3016","label":"Jebens Conditorei & Cafe"},{"s":"http://tour-pedia.org/resource/93159","lat":"52.5034","lng":"13.3174","label":"Mondo Pazzo"},{"s":"http://tour-pedia.org/resource/93166","lat":"52.5119","lng":"13.295","label":"Al Mundo Café und Restaurant"},{"s":"http://tour-pedia.org/resource/93190","lat":"52.5004","lng":"13.3165","label":"Hotel Casa"},{"s":"http://tour-pedia.org/resource/93196","lat":"52.5118","lng":"13.3209","label":"Schweinske"},{"s":"http://tour-pedia.org/resource/93221","lat":"52.5057","lng":"13.2993","label":"Windback"},{"s":"http://tour-pedia.org/resource/93224","lat":"52.4973","lng":"13.2906","label":"Eisgrün"},{"s":"http://tour-pedia.org/resource/93234","lat":"52.51","lng":"13.282","label":"U Kaiserdamm (Berlin)"},{"s":"http://tour-pedia.org/resource/93237","lat":"52.4984","lng":"13.2973","label":"Haus der 100 Biere"},{"s":"http://tour-pedia.org/resource/93276","lat":"52.4993","lng":"13.3146","label":"Olivaer Platz"},{"s":"http://tour-pedia.org/resource/93279","lat":"52.4991","lng":"13.3214","label":"Adagio City Aparthotel"},{"s":"http://tour-pedia.org/resource/93294","lat":"52.5075","lng":"13.3094","label":"La Batea"},{"s":"http://tour-pedia.org/resource/93299","lat":"52.5149","lng":"13.3154","label":"Curry Station 36"},{"s":"http://tour-pedia.org/resource/93301","lat":"52.5019","lng":"13.3103","label":"Irish Harp Pub"},{"s":"http://tour-pedia.org/resource/93305","lat":"52.5068","lng":"13.3036","label":"Heno-Heno へのへの"},{"s":"http://tour-pedia.org/resource/93354","lat":"52.4892","lng":"13.3127","label":"Bürgeramt Charlottenburg-Wilmersdorf"},{"s":"http://tour-pedia.org/resource/93387","lat":"52.5049","lng":"13.2997","label":"Gasthaus Leonhardt"},{"s":"http://tour-pedia.org/resource/93411","lat":"52.525","lng":"13.3035","label":"Coffeemeer"},{"s":"http://tour-pedia.org/resource/93458","lat":"52.4967","lng":"13.2902","label":"S Halensee (Berlin)"},{"s":"http://tour-pedia.org/resource/93474","lat":"52.5001","lng":"13.3014","label":"Garage Weinstube"},{"s":"http://tour-pedia.org/resource/93478","lat":"52.5115","lng":"13.2965","label":"Sophie-Charlotte-Platz"},{"s":"http://tour-pedia.org/resource/93506","lat":"52.502","lng":"13.3132","label":"das Klo - die Kneipe"},{"s":"http://tour-pedia.org/resource/93529","lat":"52.5129","lng":"13.3209","label":"Cafeteria TU \"Skyline\""},{"s":"http://tour-pedia.org/resource/93530","lat":"52.4991","lng":"13.3055","label":"Hot Spot"},{"s":"http://tour-pedia.org/resource/93540","lat":"52.5063","lng":"13.2833","label":"Romiosini"},{"s":"http://tour-pedia.org/resource/93575","lat":"52.4886","lng":"13.3003","label":"Hohenzollerndamm"},{"s":"http://tour-pedia.org/resource/93580","lat":"52.5058","lng":"13.3069","label":"U Wilmersdorfer Str. (Berlin)"},{"s":"http://tour-pedia.org/resource/93594","lat":"52.526","lng":"13.3057","label":"U Mierendorffplatz (Berlin)"},{"s":"http://tour-pedia.org/resource/93604","lat":"52.5137","lng":"13.3161","label":"Tu Long China Bistro"},{"s":"http://tour-pedia.org/resource/93632","lat":"52.5138","lng":"13.3168","label":"Si Restaurant Pizzeria"},{"s":"http://tour-pedia.org/resource/93673","lat":"52.5172","lng":"13.3072","label":"U Richard-Wagner-Platz (Berlin)"},{"s":"http://tour-pedia.org/resource/93685","lat":"52.5069","lng":"13.3025","label":"Minh-Trang"},{"s":"http://tour-pedia.org/resource/93686","lat":"52.5054","lng":"13.3175","label":"Cocktailbar Zeitlos (IV)"},{"s":"http://tour-pedia.org/resource/93732","lat":"52.4831","lng":"13.3206","label":"Tulum"},{"s":"http://tour-pedia.org/resource/93745","lat":"52.5009","lng":"13.3127","label":"Starbucks"},{"s":"http://tour-pedia.org/resource/93758","lat":"52.5044","lng":"13.3175","label":"NU Restaurant"},{"s":"http://tour-pedia.org/resource/93764","lat":"52.5014","lng":"13.3171","label":"Einstein Coffeeshop"},{"s":"http://tour-pedia.org/resource/93824","lat":"52.501","lng":"13.3214","label":"Marooush"},{"s":"http://tour-pedia.org/resource/93825","lat":"52.5129","lng":"13.3046","label":"Leonardo Hotel Berlin"},{"s":"http://tour-pedia.org/resource/93829","lat":"52.5032","lng":"13.3168","label":"Adnan"},{"s":"http://tour-pedia.org/resource/93854","lat":"52.5018","lng":"13.3079","label":"Frau Behrens Torten"},{"s":"http://tour-pedia.org/resource/93860","lat":"52.5094","lng":"13.3054","label":"Cafe Extrablatt"},{"s":"http://tour-pedia.org/resource/93874","lat":"52.5079","lng":"13.309","label":"Karun Bistro - Persisch Arabische Küche"},{"s":"http://tour-pedia.org/resource/93883","lat":"52.5004","lng":"13.3135","label":"Sagano"},{"s":"http://tour-pedia.org/resource/93885","lat":"52.5011","lng":"13.3074","label":"Tao - Sushi Vietnam Restaurant"},{"s":"http://tour-pedia.org/resource/93931","lat":"52.4925","lng":"13.3153","label":"Senatsverwaltung für Stadtentwicklung"},{"s":"http://tour-pedia.org/resource/93991","lat":"52.4969","lng":"13.3126","label":"Gusto"},{"s":"http://tour-pedia.org/resource/93992","lat":"52.507","lng":"13.2965","label":"Viet-Frisch"},{"s":"http://tour-pedia.org/resource/94050","lat":"52.4889","lng":"13.2612","label":"Scheune"},{"s":"http://tour-pedia.org/resource/94051","lat":"52.5087","lng":"13.3059","label":"Starbucks Coffee House"},{"s":"http://tour-pedia.org/resource/94060","lat":"52.5059","lng":"13.3182","label":"Der Kuchenladen"},{"s":"http://tour-pedia.org/resource/94129","lat":"52.4999","lng":"13.307","label":"Block House"},{"s":"http://tour-pedia.org/resource/94207","lat":"52.5058","lng":"13.3176","label":"Kant Cafe"},{"s":"http://tour-pedia.org/resource/94217","lat":"52.5055","lng":"13.3177","label":"Jules Verne"},{"s":"http://tour-pedia.org/resource/94225","lat":"52.5102","lng":"13.283","label":"Cancún"},{"s":"http://tour-pedia.org/resource/94236","lat":"52.5068","lng":"13.2804","label":"asado"},{"s":"http://tour-pedia.org/resource/94242","lat":"52.4983","lng":"13.2958","label":"Ku' Damm 101"},{"s":"http://tour-pedia.org/resource/94244","lat":"52.4972","lng":"13.2869","label":"Hotel Kronprinz Berlin"},{"s":"http://tour-pedia.org/resource/94257","lat":"52.5066","lng":"13.3056","label":"Cafe au Lait"},{"s":"http://tour-pedia.org/resource/94314","lat":"52.511","lng":"13.2975","label":"U Sophie-Charlotte-Platz (Berlin)"},{"s":"http://tour-pedia.org/resource/94388","lat":"52.5235","lng":"13.3065","label":"ECONTEL HOTEL"},{"s":"http://tour-pedia.org/resource/94393","lat":"52.4991","lng":"13.3127","label":"Citadines Kurfürstendamm Berlin"},{"s":"http://tour-pedia.org/resource/94440","lat":"52.5199","lng":"13.2999","label":"Brauhaus Lemke am Schloss Gaststätte"},{"s":"http://tour-pedia.org/resource/94478","lat":"52.5004","lng":"13.3191","label":"Hotel Elba"},{"s":"http://tour-pedia.org/resource/94505","lat":"52.4965","lng":"13.2925","label":"Trattoria Mineo"},{"s":"http://tour-pedia.org/resource/94520","lat":"52.4983","lng":"13.3144","label":"Vogelweide"},{"s":"http://tour-pedia.org/resource/94522","lat":"52.5118","lng":"13.304","label":"Finanzamt Charlottenburg"},{"s":"http://tour-pedia.org/resource/94524","lat":"52.5102","lng":"13.2841","label":"Grill Lokanta"},{"s":"http://tour-pedia.org/resource/94573","lat":"52.5193","lng":"13.2984","label":"Opera Italiana"},{"s":"http://tour-pedia.org/resource/94591","lat":"52.5045","lng":"13.299","label":"El Gato Azul"},{"s":"http://tour-pedia.org/resource/94608","lat":"52.504","lng":"13.317","label":"Baba Angora"},{"s":"http://tour-pedia.org/resource/94630","lat":"52.5255","lng":"13.3042","label":"Apulia Sapori"},{"s":"http://tour-pedia.org/resource/94700","lat":"52.5012","lng":"13.3189","label":"Bier's Kudamm 195"},{"s":"http://tour-pedia.org/resource/94708","lat":"52.5109","lng":"13.3056","label":"Brot und Brötchen"},{"s":"http://tour-pedia.org/resource/94744","lat":"52.4991","lng":"13.309","label":"Hotel Quentin Berlin"},{"s":"http://tour-pedia.org/resource/94747","lat":"52.4991","lng":"13.3109","label":"Rheingold Hotel Pension"},{"s":"http://tour-pedia.org/resource/94752","lat":"52.5056","lng":"13.3023","label":"Hotel Am Stuttgarter Eck"},{"s":"http://tour-pedia.org/resource/94756","lat":"52.5066","lng":"13.3035","label":"Hotel Spreewitz"},{"s":"http://tour-pedia.org/resource/94757","lat":"52.5022","lng":"13.3037","label":"Hotel Orion-Berlin"},{"s":"http://tour-pedia.org/resource/94767","lat":"52.4891","lng":"13.3165","label":"ibis Berlin City West"},{"s":"http://tour-pedia.org/resource/94769","lat":"52.4975","lng":"13.3177","label":"Hotel-Pension Kleist"},{"s":"http://tour-pedia.org/resource/94771","lat":"52.5163","lng":"13.3108","label":"Arktur City Hotel"},{"s":"http://tour-pedia.org/resource/94773","lat":"52.5058","lng":"13.319","label":"Hotel-Pension Cortina"},{"s":"http://tour-pedia.org/resource/94774","lat":"52.51","lng":"13.3022","label":"Amary City Residence"},{"s":"http://tour-pedia.org/resource/94783","lat":"52.5021","lng":"13.3064","label":"Hotel Amadeus Am Kurfürstendamm"},{"s":"http://tour-pedia.org/resource/94802","lat":"52.4994","lng":"13.3051","label":"Louisa's Place"},{"s":"http://tour-pedia.org/resource/94807","lat":"52.497","lng":"13.3073","label":"Agon Lichtburg"},{"s":"http://tour-pedia.org/resource/94832","lat":"52.4972","lng":"13.2925","label":"ArayaThai Restaurant"},{"s":"http://tour-pedia.org/resource/94834","lat":"52.4998","lng":"13.3146","label":"Keno Restaurant Bar"},{"s":"http://tour-pedia.org/resource/94850","lat":"52.4996","lng":"13.3051","label":"Video World"},{"s":"http://tour-pedia.org/resource/94876","lat":"52.5066","lng":"13.2843","label":"Ganda Restaurant"},{"s":"http://tour-pedia.org/resource/94900","lat":"52.4976","lng":"13.2961","label":"Tre Terre"},{"s":"http://tour-pedia.org/resource/94924","lat":"52.4979","lng":"13.3121","label":"Hotel Europa City"},{"s":"http://tour-pedia.org/resource/94925","lat":"52.5005","lng":"13.3191","label":"Best Western Hotel Berlin-Kurfürstendamm"},{"s":"http://tour-pedia.org/resource/94935","lat":"52.5173","lng":"13.3054","label":"Lavandevil"},{"s":"http://tour-pedia.org/resource/94985","lat":"52.5067","lng":"13.3083","label":"Sy"},{"s":"http://tour-pedia.org/resource/94991","lat":"52.5003","lng":"13.3077","label":"Graffiti"},{"s":"http://tour-pedia.org/resource/94995","lat":"52.5079","lng":"13.3055","label":"Café September"},{"s":"http://tour-pedia.org/resource/94996","lat":"52.5119","lng":"13.3084","label":"Deutsche Oper Berlin"},{"s":"http://tour-pedia.org/resource/95048","lat":"52.5256","lng":"13.3077","label":"Thai China Bistro - Dao Nguyen"},{"s":"http://tour-pedia.org/resource/95077","lat":"52.4973","lng":"13.2935","label":"Hanok"},{"s":"http://tour-pedia.org/resource/95094","lat":"52.5063","lng":"13.3168","label":"Moon Thai"},{"s":"http://tour-pedia.org/resource/95104","lat":"52.5048","lng":"13.2991","label":"Dollinger"},{"s":"http://tour-pedia.org/resource/95130","lat":"52.5054","lng":"13.303","label":"Cafe Rossia"},{"s":"http://tour-pedia.org/resource/95131","lat":"52.514","lng":"13.3054","label":"Wilhelm Hoeck since 1892"},{"s":"http://tour-pedia.org/resource/95143","lat":"52.5057","lng":"13.3207","label":"Hotel Sir F.K. Savigny, Berlin"},{"s":"http://tour-pedia.org/resource/95232","lat":"52.5063","lng":"13.3156","label":"Aroma"},{"s":"http://tour-pedia.org/resource/95280","lat":"52.4963","lng":"13.2933","label":"Fleischerei Bünger"},{"s":"http://tour-pedia.org/resource/91965","lat":"52.503","lng":"13.3132","label":"Art Nouveau Hotel"},{"s":"http://tour-pedia.org/resource/91970","lat":"52.507","lng":"13.2805","label":"ibis Berlin Messe"},{"s":"http://tour-pedia.org/resource/91971","lat":"52.5056","lng":"13.3039","label":"City Pension Berlin"},{"s":"http://tour-pedia.org/resource/91983","lat":"52.497","lng":"13.3037","label":"Propeller Island City Lodge"},{"s":"http://tour-pedia.org/resource/91991","lat":"52.5005","lng":"13.3168","label":"Stadt-gut-Hotel Bogota"},{"s":"http://tour-pedia.org/resource/100046","lat":"52.4933","lng":"13.3325","label":"Ristorante San Marino"},{"s":"http://tour-pedia.org/resource/100065","lat":"52.5266","lng":"13.3412","label":"Döner Turm"},{"s":"http://tour-pedia.org/resource/100102","lat":"52.508","lng":"13.3352","label":"Elefanten / Elephants"},{"s":"http://tour-pedia.org/resource/100113","lat":"52.5219","lng":"13.3275","label":"Kim Thanh II"},{"s":"http://tour-pedia.org/resource/100135","lat":"52.4962","lng":"13.3279","label":"JETpak Flashpacker"},{"s":"http://tour-pedia.org/resource/100226","lat":"52.4992","lng":"13.342","label":"Fuggerstrasse"},{"s":"http://tour-pedia.org/resource/100246","lat":"52.5047","lng":"13.3365","label":"Weltkugelbrunnen (Wasserklops)"},{"s":"http://tour-pedia.org/resource/100287","lat":"52.5069","lng":"13.3456","label":"Club Lounge @ InterContinental"},{"s":"http://tour-pedia.org/resource/100305","lat":"52.5317","lng":"13.3493","label":"Pizzeria Mini Perle"},{"s":"http://tour-pedia.org/resource/100325","lat":"52.5016","lng":"13.3615","label":"Where the Bar has no Name"},{"s":"http://tour-pedia.org/resource/100383","lat":"52.5267","lng":"13.3391","label":"Bistro Jonas"},{"s":"http://tour-pedia.org/resource/100400","lat":"52.5265","lng":"13.3491","label":"Nusantara Restaurant"},{"s":"http://tour-pedia.org/resource/100402","lat":"52.4871","lng":"13.328","label":"Yoko Sushi Wilmersdorf"},{"s":"http://tour-pedia.org/resource/100456","lat":"52.5036","lng":"13.3473","label":"Pucci Restaurant & Cafe"},{"s":"http://tour-pedia.org/resource/100462","lat":"52.504","lng":"13.3257","label":"La Mano Verde Vegan Restaurant"},{"s":"http://tour-pedia.org/resource/100478","lat":"52.5253","lng":"13.3693","label":"Gleis 3/4"},{"s":"http://tour-pedia.org/resource/100531","lat":"52.5216","lng":"13.3483","label":"Moabiter Brücke"},{"s":"http://tour-pedia.org/resource/100532","lat":"52.5202","lng":"13.3502","label":"Gerickesteg"},{"s":"http://tour-pedia.org/resource/100538","lat":"52.4943","lng":"13.3235","label":"Bäckerei Exner - Café in Berlin"},{"s":"http://tour-pedia.org/resource/100638","lat":"52.5298","lng":"13.3271","label":"Abu Laila Konditorei"},{"s":"http://tour-pedia.org/resource/100655","lat":"52.5074","lng":"13.3327","label":"Gleis 1/2"},{"s":"http://tour-pedia.org/resource/100664","lat":"52.5037","lng":"13.352","label":"Bar Berlin"},{"s":"http://tour-pedia.org/resource/100697","lat":"52.5419","lng":"13.3504","label":"Apotheke Augustenburger Platz"},{"s":"http://tour-pedia.org/resource/100715","lat":"52.4981","lng":"13.3543","label":"Xara Café Lounge"},{"s":"http://tour-pedia.org/resource/100718","lat":"52.4979","lng":"13.348","label":"Zsa Zsa Burger"},{"s":"http://tour-pedia.org/resource/100732","lat":"52.5079","lng":"13.3327","label":"Bahnhofsmission"},{"s":"http://tour-pedia.org/resource/100739","lat":"52.5217","lng":"13.3362","label":"Paula Compfy Corner"},{"s":"http://tour-pedia.org/resource/100775","lat":"52.4868","lng":"13.3275","label":"Czerr"},{"s":"http://tour-pedia.org/resource/100790","lat":"52.5185","lng":"13.35","label":"Schlosspark Bellevue"},{"s":"http://tour-pedia.org/resource/100871","lat":"52.5066","lng":"13.3315","label":"Gleis 5/6 (S-Bahn)"},{"s":"http://tour-pedia.org/resource/100883","lat":"52.5028","lng":"13.3653","label":"Die Löffelei"},{"s":"http://tour-pedia.org/resource/100938","lat":"52.5243","lng":"13.3509","label":"Otti Grill"},{"s":"http://tour-pedia.org/resource/100952","lat":"52.5039","lng":"13.346","label":"Leckerback"},{"s":"http://tour-pedia.org/resource/101030","lat":"52.5007","lng":"13.343","label":"Mola"},{"s":"http://tour-pedia.org/resource/101057","lat":"52.5314","lng":"13.3288","label":"Reformationskirche"},{"s":"http://tour-pedia.org/resource/101060","lat":"52.5282","lng":"13.3305","label":"Ristorante La Tettoia"},{"s":"http://tour-pedia.org/resource/101082","lat":"52.495","lng":"13.3241","label":"Saray"},{"s":"http://tour-pedia.org/resource/101119","lat":"52.5258","lng":"13.3303","label":"Club 31"},{"s":"http://tour-pedia.org/resource/101123","lat":"52.5201","lng":"13.3472","label":"Romantische Bank"},{"s":"http://tour-pedia.org/resource/101152","lat":"52.5275","lng":"13.3304","label":"Pizzeria - Il Buco"},{"s":"http://tour-pedia.org/resource/101169","lat":"52.499","lng":"13.3748","label":"ABC Berlin"},{"s":"http://tour-pedia.org/resource/101179","lat":"52.525","lng":"13.3693","label":"Upper Crust"},{"s":"http://tour-pedia.org/resource/101293","lat":"52.5008","lng":"13.3303","label":"Dr. med. Elke Focke"},{"s":"http://tour-pedia.org/resource/101394","lat":"52.4899","lng":"13.3489","label":"Chay Village"},{"s":"http://tour-pedia.org/resource/101488","lat":"52.5025","lng":"13.3359","label":"Parkhaus Los Angeles"},{"s":"http://tour-pedia.org/resource/101537","lat":"52.5222","lng":"13.3382","label":"Physiotherapie Praxis Prytula & Wellenbrock"},{"s":"http://tour-pedia.org/resource/101638","lat":"52.4903","lng":"13.3306","label":"Hotel Vier Jahreszeiten"},{"s":"http://tour-pedia.org/resource/101642","lat":"52.5066","lng":"13.3297","label":"aletto Kudamm Hotel & Hostel"},{"s":"http://tour-pedia.org/resource/101714","lat":"52.507","lng":"13.3453","label":"Deutscher Logistik-Kongress"},{"s":"http://tour-pedia.org/resource/101764","lat":"52.5133","lng":"13.3372","label":"Imbiss 17. Juni"},{"s":"http://tour-pedia.org/resource/101765","lat":"52.51","lng":"13.3225","label":"GIRO Coffee Bar"},{"s":"http://tour-pedia.org/resource/101773","lat":"52.5007","lng":"13.337","label":"Hotel Bernstein"},{"s":"http://tour-pedia.org/resource/101779","lat":"52.5257","lng":"13.3362","label":"Otto Spielplatz"},{"s":"http://tour-pedia.org/resource/101807","lat":"52.4942","lng":"13.3383","label":"Hotel de Ela"},{"s":"http://tour-pedia.org/resource/101826","lat":"52.5049","lng":"13.3256","label":"Cafe Hampton Hotel @ Hilton"},{"s":"http://tour-pedia.org/resource/101836","lat":"52.4783","lng":"13.3304","label":"Hotel Atlas"},{"s":"http://tour-pedia.org/resource/101853","lat":"52.5037","lng":"13.3445","label":"China- Restaurant Ho Lee"},{"s":"http://tour-pedia.org/resource/101881","lat":"52.5214","lng":"13.3241","label":"Tam Giang"},{"s":"http://tour-pedia.org/resource/101967","lat":"52.5248","lng":"13.3486","label":"Zahnärzte Radecke & Stiller"},{"s":"http://tour-pedia.org/resource/101997","lat":"52.4971","lng":"13.3541","label":"Papaya"},{"s":"http://tour-pedia.org/resource/102014","lat":"52.498","lng":"13.3412","label":"Welserstr."},{"s":"http://tour-pedia.org/resource/102053","lat":"52.5116","lng":"13.322","label":"orange lab"},{"s":"http://tour-pedia.org/resource/102090","lat":"52.5277","lng":"13.3273","label":"Big Bascha"},{"s":"http://tour-pedia.org/resource/102123","lat":"52.5016","lng":"13.3253","label":"Trattoria Venezia"},{"s":"http://tour-pedia.org/resource/102142","lat":"52.5019","lng":"13.3462","label":"Espresso Bar"},{"s":"http://tour-pedia.org/resource/102175","lat":"52.5079","lng":"13.3279","label":"Hotel Indigo"},{"s":"http://tour-pedia.org/resource/102228","lat":"52.5296","lng":"13.3462","label":"Botschaft der Republik Mosambik"},{"s":"http://tour-pedia.org/resource/102325","lat":"52.4938","lng":"13.3333","label":"Ramada Plaza Berlin"},{"s":"http://tour-pedia.org/resource/102364","lat":"52.5072","lng":"13.3295","label":"Ishin Tey"},{"s":"http://tour-pedia.org/resource/102474","lat":"52.5056","lng":"13.3334","label":"Waldorf Astoria Berlin"},{"s":"http://tour-pedia.org/resource/102690","lat":"52.5319","lng":"13.3287","label":"Gemeindesaal Reformationskirche"},{"s":"http://tour-pedia.org/resource/102705","lat":"52.5229","lng":"13.3384","label":"Zum Doppelpaß"},{"s":"http://tour-pedia.org/resource/102940","lat":"52.5034","lng":"13.3224","label":"APCOA Parkhaus Knesebeckstraße"},{"s":"http://tour-pedia.org/resource/103067","lat":"52.5277","lng":"13.3385","label":"Der Fischladen"},{"s":"http://tour-pedia.org/resource/103137","lat":"52.5039","lng":"13.3299","label":"Dean & David fresh to eat"},{"s":"http://tour-pedia.org/resource/103171","lat":"52.5207","lng":"13.3884","label":"Fritz 101"},{"s":"http://tour-pedia.org/resource/103247","lat":"52.5028","lng":"13.3667","label":"La Focaccia"},{"s":"http://tour-pedia.org/resource/103278","lat":"52.5272","lng":"13.3311","label":"Recep Usta Köfteci"},{"s":"http://tour-pedia.org/resource/103284","lat":"52.5225","lng":"13.3396","label":"Spree-Ufer Moabit"},{"s":"http://tour-pedia.org/resource/103347","lat":"52.5284","lng":"13.3365","label":"John's Cozy Little Jungle Hostel"},{"s":"http://tour-pedia.org/resource/103350","lat":"52.497","lng":"13.3657","label":"Abgeordnetenhaus von Berlin - R 113"},{"s":"http://tour-pedia.org/resource/103373","lat":"52.5001","lng":"13.3314","label":"Q damm Apartments"},{"s":"http://tour-pedia.org/resource/103443","lat":"52.5072","lng":"13.3324","label":"Gleis 3/4"},{"s":"http://tour-pedia.org/resource/103454","lat":"52.5042","lng":"13.3325","label":"McDonald´s - McCafé"},{"s":"http://tour-pedia.org/resource/103587","lat":"52.5055","lng":"13.3409","label":"Olof-Palme-Platz"},{"s":"http://tour-pedia.org/resource/103588","lat":"52.5055","lng":"13.3398","label":"Elefantentor"},{"s":"http://tour-pedia.org/resource/103709","lat":"52.4992","lng":"13.3357","label":"City Imbiss"},{"s":"http://tour-pedia.org/resource/103710","lat":"52.5037","lng":"13.3445","label":"Restaurant Berlinchen"},{"s":"http://tour-pedia.org/resource/103831","lat":"52.5259","lng":"13.3302","label":"Leck Deine Küche"},{"s":"http://tour-pedia.org/resource/103902","lat":"52.5275","lng":"13.3285","label":"Andys Wurscht Palast"},{"s":"http://tour-pedia.org/resource/103934","lat":"52.5201","lng":"13.3473","label":"Absolut Curry"},{"s":"http://tour-pedia.org/resource/103976","lat":"52.4968","lng":"13.3458","label":"Martin-Luther-Straße"},{"s":"http://tour-pedia.org/resource/103978","lat":"52.479","lng":"13.3291","label":"Bundesplatz Studio"},{"s":"http://tour-pedia.org/resource/103979","lat":"52.4725","lng":"13.3289","label":"Friedenau"},{"s":"http://tour-pedia.org/resource/104062","lat":"52.5266","lng":"13.3305","label":"Medizinische Versorgungszentrum Tiergarten"},{"s":"http://tour-pedia.org/resource/104219","lat":"52.5313","lng":"13.3477","label":"Bruno-Lösche-Bibliothek"},{"s":"http://tour-pedia.org/resource/104446","lat":"52.5008","lng":"13.3371","label":"Nürnberger Straße"},{"s":"http://tour-pedia.org/resource/104493","lat":"52.5241","lng":"13.3343","label":"Coffee Break Berlin"},{"s":"http://tour-pedia.org/resource/104568","lat":"52.5266","lng":"13.3302","label":"Burkhard Bratzke"},